"ClaimNumber","lat","long","LossCity","lossPostal","County"
"0003fa6bd31dd2c28e19e72a3edd5f74",44.249454,-85.419174,"Cadillac","49601","WEXFORD"
"000c6c706a072ca8eaea5ff4eb0481ca",34.85743,-92.39722,"Maumelle","72113",NA
"001d6375066c0cba32a44da09d3e94ad",42.173293,-83.776564,"Saline","48176","WASHTENAW"
"0020c1d746cccaf7f181ad87cb2b7a2a",42.793721,-83.740638,"Fenton","48430-3421","GENESEE"
"00261aff94715a29ad0f0b80cfdadb28",43.711885,-86.33977,"Hart","49420","OCEANA"
"002bd0ba0d794f3e501c780144674d3e",42.982035,-82.448487,"Port Huron","48060","ST. CLAIR"
"002e41681349da98f72cf73a15bd1099",42.462841,-83.18352,"Oak Park","48237","OAKLAND"
"002f57ec4bc6e322758fc4bfb68f37fd",42.06141,-84.364924,"Cement City","49233","HILLSDALE"
"0030d3783a3d31ac3eb55cc4ab92e20a",42.732659,-84.556047,"Lansing","48901","INGHAM"
"003804a98d59186af63f21ef15696fc0",42.732659,-84.556047,"Lansing","48901","INGHAM"
"0039d515a6a2e49b589d54505c4fdc82",42.564732,-83.068295,"Sterling Heights","48310","MACOMB"
"00508200933c77f0e2bbe98a87089093",43.611223,-84.776711,"Mount Pleasant","48804","ISABELLA"
"005f6e8747a077b1bd2fb58eb3e6ac60",42.231396,-83.6302,"Ypsilanti","48197","WASHTENAW"
"006b284a1ac09b7794b3a0d6f4f2f92e",43.053988,-83.327384,"Lapeer","48446","LAPEER"
"006f585578ff0acb04fa4a4aad453a81",42.759284,-83.384724,"Clarkston","48348","OAKLAND"
"0078af2e77a0cd403f2ad80a4e32f292",43.415386,-85.475016,"Howard City","49329","MONTCALM"
"007fbf59ce4c623ab1640178fab32843",45.315812,-85.258752,"Charlevoix","49711","CHARLEVOIX"
"0082e17c227ec69adff638609ec55ba8",43.307405,-83.844882,"Birch Run","48415","SAGINAW"
"008c348ebe0e7c859fa147722220f8ba",41.861571,-83.451229,"La Salle","48145","MONROE"
"008c9763630a8a55132f232e8777549e",43.255195,-83.794346,"Birch Run","48415","SAGINAW"
"008d3798c358f9aa80576798794950c2",42.565598,-83.038545,"Sterling Heights","48311","MACOMB"
"008e197e151670ae57c9118d8de41e46",43.115416,-82.588581,"Grant Township","48032-2705","ST. CLAIR"
"0094e279851f540304093720723fac01",42.790338,-86.098823,"Holland","49422","OTTAWA"
"00a0b7ad2cf83ab037779e7cafc422a7",43.417006,-84.022283,"Saginaw","48638","SAGINAW"
"00a0c599811bc22a5599d39b5328a5dc",42.173293,-83.776564,"Saline","48176","WASHTENAW"
"00a7da191c722e0692968b040ed7d006",42.732672,-84.552614,"Lansing","48933","INGHAM"
"00a9cf2116f75f7d84b8e9775d8eb7c7",42.560295,-82.906151,"Clinton Township","48035","MACOMB"
"00af5945203c4dce5f38855bea4bb806",42.910965,-83.495499,"Goodrich","48438","GENESEE"
"00b3076907c8e226caa199972b6d4a81",42.650137,-83.357532,"Waterford","48328","OAKLAND"
"00b30c8a18887e907e9f92245793d48a",43.059851,-85.942761,"Coopersville","49404","OTTAWA"
"00c113810c4c146f71c910b8d54e6f4a",42.716491,-83.763062,"Fenton","48430","LIVINGSTON"
"00d0c274104037c69f7417c7a890a496",42.518185,-82.982591,"Warren","48088","MACOMB"
"00d8beacc08886b909a7717ca999c739",42.687547,-82.907869,"Macomb","48042","MACOMB"
"00dc4d143dbd783ed1a5d54178afa60f",42.598308,-83.905675,"Howell","48843","LIVINGSTON"
"00dfa139f370a032e6a75c87737af204",42.565473,-83.773632,"Brighton","48114","LIVINGSTON"
"00e1e99840430efe722314c6829a2b1e",42.538285,-83.384457,"West Bloomfield","48322","OAKLAND"
"00e2c0d95288f4de5d5d5f0cb6748905",46.34061,-84.968923,"Eckerman","49728-9420","CHIPPEWA"
"00e2cfeabce215a21499bd3802dba974",42.564732,-83.068295,"Sterling Heights","48310","MACOMB"
"00eb36f854b12739a8258269b49972e5",42.735288,-83.509077,"Davisburg","48350","OAKLAND"
"00f46cc7c6564bc8d31b5d771505a9c3",42.239435,-83.584198,"Ypsilanti","48198","WASHTENAW"
"00f6208ec9f4b88c57001dd0eb766559",42.486947,-83.263254,"Southfield","48037","OAKLAND"
"01001efc3d1f52f8766179896b75b597",43.016902,-85.724387,"Walker","49544","KENT"
"0103fed913817bd0095782e48e945b35",42.971822,-85.9402,"Allendale","49401","OTTAWA"
"010be6be8b7cf39cc0e1c0f819646b6d",42.66726,-83.001039,"Shelby Township","48315","MACOMB"
"010db7bc0d67ca04729beaa350d2035d",42.817663,-86.017472,"Borculo","49464","OTTAWA"
"010e8d6ce93e8f57b59ac99c86324560",41.944064,-83.385262,"Monroe","48162","MONROE"
"011f57616969956803cb715e1b939c83",42.560295,-82.906151,"Clinton Township","48035","MACOMB"
"0131e180f113a0c6cf981c3c4c38d06f",42.351076,-83.025059,"Detroit","48207","WAYNE"
"013ba970ebe5383757e1d6127c91fe0a",42.507987,-83.10592,"Madison Heights","48071","OAKLAND"
"013e754212fbbd9cf138f6ae4f8cc727",44.266098,-83.530072,"Tawas City","48763","IOSCO"
"013efe1b648fc81ac591239fcc1a8dec",42.66726,-83.001039,"Utica","48315","MACOMB"
"01415eda754f6c347690057b2ce9106d",45.854934,-84.628284,"Mackinac Island","49757","MACKINAC"
"0143ddad50527479f3b1e9fe8a4ca4e1",41.840742,-85.669498,"Constantine","49042-1009","ST. JOSEPH"
"014d82445d9ff51e298ad73e9c42d55f",42.790338,-86.098823,"Holland","49422","OTTAWA"
"0150ab674e2de3857f220330cae62b12",41.792285,-83.641741,"Temperance","48182","MONROE"
"0150fdb1897254913c9b2f30b6f1fc94",42.598308,-83.905675,"Howell","48843","LIVINGSTON"
"0155d4a21ff98e76dcff9da236736d6d",43.067697,-85.135081,"Orleans","48865-9811","IONIA"
"01612a678d6fb4f7012335eaa2960b98",42.464742,-85.712393,"Otsego","49078","ALLEGAN"
"01652d8274270844829dfbc51d9fc1b6",42.548932,-83.284456,"Bloomfield Hills","48301","OAKLAND"
"01698be23a394280f6cfe400e9538037",42.513962,-84.647947,"Eaton Rapids","48827","EATON"
"0173a27cef2fa87bddad90ee484e6f30",43.043216,-86.202193,"Grand Haven","49417","OTTAWA"
"0178e8fb305e19561d32e5b1db93e8e9",42.717665,-83.151926,"Rochester","48306","OAKLAND"
"017cc2060f4d4c5d4e63179a1044d5fe",42.926933,-83.035225,"Jenison","48003","LAPEER"
"018116be7f647535a951ea242f2ae880",42.759284,-83.384724,"Independence Township","48348","OAKLAND"
"0187985766ad6fd3261c5685ed56d212",43.148166,-85.849309,"Conklin","49403","OTTAWA"
"018f276666c020f82feef35ab2af48be",42.564732,-83.068295,"Sterling Heights","48310","MACOMB"
"01985869afe5343e9abee64e0a0c2f4b",42.598308,-83.905675,"Howell","48843","LIVINGSTON"
"01accf67b61c87007623033798d02e62",42.698972,-83.306457,"Auburn Hills","48321","OAKLAND"
"01acf7d5295f97e0e7e229a655ea8bf3",42.814978,-83.793295,"Linden","48451","GENESEE"
"01b2d1e326b5337e0b4462061b148bae",42.421481,-83.103589,"Detroit","48203","WAYNE"
"01b4ff774b338ade14bf8cdee09c20bb",42.231396,-83.6302,"Ypsilanti","48197","WASHTENAW"
"01b95b70248d4cda0fda599834faef2d",42.560295,-82.906151,"Clinton Township","48035","MACOMB"
"01c26315128cb7336d89725de2c1130c",42.548932,-83.284456,"Bloomfield Hills","48301","OAKLAND"
"01c61bba5c330e829dc998d4c4f2d43c",41.642624,-83.511784,"Toledo","43605",NA
"01cc626816598ca452efe52ca107efb4",42.239435,-83.584198,"Ypsilanti","48198","WASHTENAW"
"01d1df96344b4755331be8a7f9d63410",42.90457,-85.819925,"Jenison","49428","OTTAWA"
"01d5d4d336b170a0700ad5bbf68a9bad",42.646987,-82.927716,"Macomb","48044","MACOMB"
"01d779a760afd327072226e2a98ce033",42.687547,-82.907869,"Macomb","48042","MACOMB"
"01dddc9375d40a20bea73bbb6cad3d25",41.983737,-85.854428,"Marcellus","49067-9530","CASS"
"01df13a6b34e44f7264e695dbe0862c6",42.266835,-85.564718,"Kalamazoo","49001","KALAMAZOO"
"01e95173c587a64c2f7b0d5ba9c86a74",41.79048,-83.498708,"Erie","48133","MONROE"
"01ee12fbad2e68b449c24b961d608463",42.759284,-83.384724,"Clarkston","48348","OAKLAND"
"01efb6467f554eb168f3532fc5c34dd9",42.984241,-84.103089,"Corunna","48817","SHIAWASSEE"
"01f36dbb049a9bdfe445aeddfdbbdda6",44.759196,-85.668523,"Traverse City","49684","GRAND TRAVERSE"
"01f4b93f8447c90bad989cb6d1934dca",42.278124,-83.262613,"Dearborn Heights","48125","WAYNE"
"01ffee9152417cf8bafddb805444d401",42.231223,-83.262935,"Taylor","48180","WAYNE"
"0205fd4307ae14b60eb074601c1aafc6",42.266835,-85.564718,"Kalamazoo","49001","KALAMAZOO"
"021a99158c0de69b90bbdd1a57fdf1a7",42.565473,-83.773632,"Brighton","48114","LIVINGSTON"
"021ac888f06ac203ad0c599ac7d632c2",42.849872,-82.914078,"Armada","48005","MACOMB"
"021f0534791adcca4e5e64bdaf6fb7d0",42.014411,-86.510868,"Stevensville","49127","BERRIEN"
"0225251541d42a13f65c7da40562b6b9",42.55997,-83.147539,"Troy","48007","OAKLAND"
"0229dc2a1c75988866e202bf47f0da5f",42.864608,-84.904484,"Portland","48875","IONIA"
"022ab62eb2fb6a781f5d508549858144",42.732659,-84.556047,"Lansing","48901","INGHAM"
"022f717a4914a85ee5825b3a5be9a05a",42.783149,-83.72156,"Fenton","48430","GENESEE"
"023acb20c46f6c0a26e1d55f3e3116d8",42.978944,-85.775215,"Walker","49534","KENT"
"024bf092a60f2ead27454a5dbf84b569",41.926144,-85.508829,"Centreville","49032","ST. JOSEPH"
"024e3c8e70dbb876558981fceae90ce8",42.984241,-84.103089,"Corunna","48817","SHIAWASSEE"
"025b2d5bb492622b0665516a0e4d691d",43.053988,-83.327384,"Lapeer","48446","LAPEER"
"025f3369464752825861ff5ae5169ab4",42.518185,-82.982591,"Warren","48088","MACOMB"
"026202c0221f83fb9ef66f32fc3503ca",42.692783,-83.38959,"Waterford","48329","OAKLAND"
"02620b9914cb33950bd7337bae0dbbce",42.598308,-83.905675,"Howell","48843","LIVINGSTON"
"0271f2c57327a050245f5f29fdcefcad",42.247517,-84.396211,"Jackson","49201","JACKSON"
"027f0e6f0a6a7122534f748c764a3488",44.278866,-84.231733,"West Branch","48661","OGEMAW"
"0282cf8cbdfc67c117760ff77fd91726",42.421481,-83.103589,"Highland Park","48203","WAYNE"
"028ceab3d5074bed07583fcc10949bb7",41.906478,-83.41815,"Monroe","48161","MONROE"
"028fd9bfa2753138484e84b16e77c765",42.817663,-86.017472,"Zeeland","49464","OTTAWA"
"029198a1bf23362c7b264e866d5f8fc8",42.595827,-83.288689,"Bloomfield Hills","48302","OAKLAND"
"02a1d660ee05ffca120c18c4fe2373fd",42.960989,-85.502549,"Ada","49301","KENT"
"02a7efaec9f2d81683029988eb3e2ab4",41.993634,-84.327444,"Addison","49220","LENAWEE"
"02aafcbf23df7dd33e7df2da370efb49",42.27951,-83.74722,"Ann Arbor","48107","WASHTENAW"
"02ab700cf06a25b71c8e7cd2cde43a89",42.923017,-85.737778,"Grandville","49418-1176","KENT"
"02ac4b2d88ec2a027fa28e90c538bc69",42.32935,-83.482506,"Canton","48187","WAYNE"
"02bc51bb3e5df470858b44482b3c2a4b",42.717665,-83.151926,"Rochester Hills","48306","OAKLAND"
"02c251f2bbb9b94899b35679766832e7",41.989247,-83.29937,"Newport","48166","MONROE"
"02c5ae3188ca83cef970eaa4b18bef9e",42.463323,-83.841113,"Hamburg Twp","48143","LIVINGSTON"
"02c7366b7ae3ade579c700c3ecbdc1a5",43.406066,-83.166484,"Kingston","48741","TUSCOLA"
"02ca77ecd850e49b152138bcc27c4bbb",42.873433,-83.91017,"Gaines","48436","GENESEE"
"02cf0fe7522cd962ee84f0d37e0e6d1d",42.360304,-85.707148,"KALAMAZOO","49009-8864","KALAMAZOO"
"02d35dbf7bd2f9d3d4ae4f60f2de42ef",43.023316,-83.686511,"Flint","48501","GENESEE"
"02d6e198a796c2eeca1852fd9e0474c3",42.790338,-86.098823,"Holland","49422","OTTAWA"
"02dd97e470e7fadac6fa49452987d838",42.55997,-83.147539,"Troy","48007","OAKLAND"
"02de0c40d168c89eed94923bb4e04028",42.565473,-83.773632,"Brighton","48114","LIVINGSTON"
"02ded777f186bd08e78b73cd56ec7b07",42.374585,-83.077973,"Detroit","48202","WAYNE"
"02e22cf6388b333e5c2b8055f3c33d42",42.564732,-83.068295,"Sterling Heights","48310","MACOMB"
"02e245a722b39da8eb3e30a3c85cce66",42.970397,-85.673043,"Grand Rapids","49501","KENT"
"02e4d7e7159ecf862a78152f7d77104c",42.961263,-85.661612,"Grand Rapids","49503","KENT"
"02eb4a7d73b39c51c31c2caf32c26293",43.601913,-83.91718,"Bay City","48706","BAY"
"02ec20bf9b0bfe139c380927c15e39a8",44.759196,-85.668523,"Traverse City","49684","GRAND TRAVERSE"
"02f4f0c09f164430ec77652cdc0490db",46.542048,-87.402352,"Marquette","49855","MARQUETTE"
"02f5b216233c45a9c98d127c25d5fdd6",42.646987,-82.927716,"Macomb Township","48044","MACOMB"
"02fa5f5d3e6540d2cbf0aff30cc9451a",42.790338,-86.098823,"Holland","49422","OTTAWA"
"02fb1f177e8bc29186bf5f05a728d938",43.035253,-82.603215,"North Street","48049-2935","ST. CLAIR"
"02fbfbf218ba028184280f5f05f0bda3",42.944596,-85.616836,"Grand Rapids","49506","KENT"
"02fda99c06f2ef0b5bc98b8b81263983",42.306528,-83.181951,"Dearborn","48120","WAYNE"
"03090259bfceac5bb31752c0b54fb648",43.420675,-83.945579,"Saginaw","48605","SAGINAW"
"030fbff0f1c106b88f4b22e8a32f6a2c",42.335198,-83.387924,"Westland","48185","WAYNE"
"030fff5c8e75b0e12db7eba9f0d67626",43.178815,-84.847198,"Carson City","48811","MONTCALM"
"031f97f51d8300cb51006fb9b495f3c6",42.790338,-86.098823,"Holland","49422","OTTAWA"
"032038524feb0dced3936843e7e72a0c",42.265606,-84.414167,"Jackson","49202","JACKSON"
"0323266ed959120cd55050ee10ece3be",42.809956,-85.545562,"Caledonia","49316","KENT"
"03240e9b3909d4f9d7d264c5e35435e6",43.235857,-86.250162,"Muskegon","49440","MUSKEGON"
"0334a4cca080b742b330ca059dc6f0e8",42.974248,-84.569859,"Saint Johns","48879-8168","CLINTON"
"03351e7b7de1d152daf5eaed43572b70",42.442667,-83.846409,"WHITMORE LAKE","48189-9774","LIVINGSTON"
"03363f8aa7dfbd213231583e55c6a8ab",42.860559,-85.660783,"Grand Rapids","49548-5947","KENT"
"03398a6f6459d8c13fef8261ea44fd3f",44.508987,-83.892641,"South Branch","48761","OSCODA"
"03446b0d1b9bdc5befb6e1650f525543",42.867726,-85.870369,"Hudsonville","49426","OTTAWA"
"03469aaad2d41beeb17c623810114a0a",42.667678,-83.28278,"Pontiac","48340","OAKLAND"
"035d3f667e259fadb4757fe891920c3e",43.407795,-83.912611,"Saginaw","48601","SAGINAW"
"035f5957024bcdc086608b2579fddbad",45.834729,-88.05743,"Kingsford","49801","DICKINSON"
"0360a3e86fc95aa72105fdb7404858f0",42.66726,-83.001039,"Shelby Township","48315","MACOMB"
"03619328c4730062ae0329934b0d2c6a",42.720051,-85.779287,"Dorr","49323","ALLEGAN"
"0363f5e7fd8f498127b1146fac210415",42.66726,-83.001039,"Shelby Township","48315","MACOMB"
"0367c8d317e6f4fcbd0301851befdb56",42.564732,-83.068295,"Sterling Heights","48310","MACOMB"
"037bcffc197261fe4dc83d226367ec38",42.960989,-85.502549,"Ada","49301","KENT"
"0388a9dcf79b362faf0bde9e04aa46ea",43.965218,-86.433685,"Ludington","49431-1521","MASON"
"038de5c893122968111d2314c2025ead",42.231223,-83.262935,"Taylor","48180","WAYNE"
"038fc76e2151d2a74eae0750ffdfa7fa",41.88858,-83.781947,"Deerfield","49238","LENAWEE"
"03990984964f7f3f3e7e0f512504c0af",45.013243,-84.675804,"Gaylord","49734","OTSEGO"
"039bcbda1d35da60bced34fabea807c6",46.492978,-84.333672,"SAULT SAINTE MARIE","49783-2326","CHIPPEWA"
"03a566ad3ab6f7b5ed1a6ab5882d9314",43.023316,-83.686511,"Flint","48501","GENESEE"
"03aa0afa3ad708164147e762f0dcd0d7",42.673377,-82.777159,"Chesterfield","48047","MACOMB"
"03abad1ac5f354f8e6a74fb64cd5069e",43.406066,-83.166484,"Kingston","48741","TUSCOLA"
"03ac8f5c5bbb2baa471db52ea8527393",42.732659,-84.556047,"Lansing","48901","INGHAM"
"03b51da7f7c0174b4b20129269b00d0e",41.906478,-83.41815,"Monroe","48161","MONROE"
"03b9f0573584abd37829707c213a20c3",42.721283,-83.285023,"Lake Orion","48359","OAKLAND"
"03c2b13d1aa03c8a5f1193798d739281",42.867726,-85.870369,"Hudsonville","49426","OTTAWA"
"03c4858f2d54cb1e5ea98b9a0fb081db",44.266098,-83.530072,"Tawas City","48763","IOSCO"
"03c6eff4146660e1a9b5ac3fe6aebd7b",42.909188,-85.504978,"Grand Rapids","49546-7136","KENT"
"03c842706dfae66cce4d0afe7b9625e7",43.601913,-83.91718,"Bay City","48706","BAY"
"03ce6b15dfe5a1873d15ee52281a36cd",42.509874,-83.408043,"Farmington Hills","48331","OAKLAND"
"03d1c6d6af37275f799471b55118003e",42.828624,-82.775225,"Richmond","48062","MACOMB"
"03d42cd65869f5225a978ac2bbc8cb9d",42.888142,-85.570444,"Kentwood","49512","KENT"
"03de15ef48cd383145e7512474ce13ff",42.961263,-85.661612,"Wyoming","49503","KENT"
"03e34db2680ec0ff0a821f70d06f2d9f",42.502868,-83.04667,"Warren","48090","MACOMB"
"03e34f299a8109634a8f55608253e77f",38.243547,-85.763887,"Louisville","40201",NA
"03ea5387b26956df1962236a9ed8df8c",42.349831,-83.059548,"Detroit","48201","WAYNE"
"03edd6de790fc042259d838c326fc3da",42.717665,-83.151926,"Rochester","48306","OAKLAND"
"03ee10626104634596fa1cc0f26b0541",42.507987,-83.10592,"Madison Heights","48071","OAKLAND"
"03f1c65a547bd050dc80ab01a658b60f",42.698972,-83.306457,"Auburn Hills","48321","OAKLAND"
"03f5a303e0f9096640a77bd1e4d3c818",43.660141,-83.973529,"Kawkawlin","48631","BAY"
"03f6cbcd5d3f6e87bd3cdf2411a055ee",42.107368,-83.732257,"Milan","48160","WASHTENAW"
"041e4633a06467375e48265b83681de5",42.673377,-82.777159,"Chesterfield","48047","MACOMB"
"041e7e43453dcccaa3e484a905dcedd1",43.196267,-83.881665,"Montrose","48457-9794","GENESEE"
"0420293483afd45ef6d58062e6b05bc4",43.235857,-86.250162,"Muskegon","49440","MUSKEGON"
"04288da08736e7f9dae421559196a839",42.509874,-83.408043,"Farmington Hills","48331","OAKLAND"
"04292520b22f6a96f7908fa71a245dec",43.60391,-84.103281,"Auburn","48611","BAY"
"04294c597be19f1f43b77d1d567f89cc",43.117774,-83.692387,"Mount Morris","48458","GENESEE"
"04296bdc814dc3ebec5544e1eaa27552",42.278124,-83.262613,"Dearborn Heights","48125","WAYNE"
"042ba49fc60a76b126a376f2bbe656cb",42.55997,-83.147539,"Troy","48007","OAKLAND"
"042d077bc926ee57f5e560a9088d087c",42.349831,-83.059548,"Detroit","48201","WAYNE"
"0441df49548d95c1eec4ad3e159ff44d",44.724395,-85.113919,"Kalkaska","49646","KALKASKA"
"0442858df39f71366c674330169ca94d",46.174568,-84.321584,"Pickford","49774","CHIPPEWA"
"04478829c38ce2372c9efac0ccc141b3",43.023316,-83.686511,"Flint","48501","GENESEE"
"044a9fb135a5baea487f9821b5c100ae",41.952997,-85.638678,"Three Rivers","49093","ST. JOSEPH"
"044d00e8a87d1c3a77671069fe36484b",42.209763,-86.051192,"Lawrence","49064","VAN BUREN"
"044f04219a3ecd605d79dc68d7ec8028",43.235857,-86.250162,"Muskegon","49440","MUSKEGON"
"04602e1f0450d5782639c520ea094d79",42.673377,-82.777159,"Chesterfield","48047","MACOMB"
"0461370c613a0d73e54b6528c87833cf",42.809956,-85.545562,"Caledonia","49316","KENT"
"046b032ae1329498f5279a6449a25d00",42.513962,-84.647947,"Eaton Rapids","48827","EATON"
"04716d6c48e0b55efeb488464fd357d2",41.954903,-84.768204,"Allen","49227","HILLSDALE"
"047267fabbb11ad61f9645307eeacfd6",42.351076,-83.025059,"Detroit","48207","WAYNE"
"0484e10425d3729cc5ff976708fff834",42.673377,-82.777159,"New Baltimore","48047","MACOMB"
"04958ed7b514e02a189f12f3ede2ae49",43.941799,-84.134398,"Bentley","48613","BAY"
"0496cd7e582b12358979b75121d462d3",42.231396,-83.6302,"Ypsilanti","48197","WASHTENAW"
"0499a9b714d6a66c940ed64f590306b7",42.486657,-83.140649,"Royal Oak","48067","OAKLAND"
"0499ec87ab32f791948da2675faf818c",43.601913,-83.91718,"Bay City","48706","BAY"
"049ad98b96e57f3bec649799198c286b",42.982855,-85.064206,"Ionia","48846","IONIA"
"04a07f8328b81c58a2f4dbf356b2fcc2",44.737835,-93.207477,"Apple Valley","55124",NA
"04a62c5b7550da6b2e83d7a858ac5564",41.860223,-84.349493,"Hudson","49247","LENAWEE"
"04a96bd5892394669dc428732faca435",42.774841,-86.108125,"Holland","49423","OTTAWA"
"04b25f8f5cbb79fb525cb1eb089f43b6",42.593143,-83.494152,"Commerce Township","48382","OAKLAND"
"04bc96ff6f286986c31fe933cf3900ee",40.865073,-82.320306,"Ashland","44805",NA
"04c685d8f6072ae38c960314077ecd8e",42.222179,-85.89977,"Paw Paw","49079","VAN BUREN"
"04d2e35f1be82729898237005865af35",44.410796,-85.40741,"Manton","49663","WEXFORD"
"04d58d9a8b9172a9dcafcffc3198ae26",42.538285,-83.384457,"West Bloomfield","48322","OAKLAND"
"04da616c50b79896164d387b39024f41",42.867899,-85.645057,"Kentwood","49508-6010","KENT"
"04dd5de4b6149e79179bf0b648e11c14",43.853575,-83.980321,"Pinconning","48650","BAY"
"04df5a14cd80a2578d25c8ceb7446a35",42.930492,-85.653294,"Grand Rapids","49507","KENT"
"04eacb5953dc1424f28aa815595deda7",44.633272,-85.798708,"Interlochen","49643","GRAND TRAVERSE"
"04f73cce984a70d9c02c519b2c9488b0",42.66726,-83.001039,"Utica","48315","MACOMB"
"04fd799bf6047d75807a558a6ec139ef",43.343885,-83.362658,"Mayville","48744","TUSCOLA"
"0512792291af4ce4778c934fcd28c794",42.790338,-86.098823,"Holland","49422","OTTAWA"
"0514f5fe10c6282477b9c6202e3a05a5",42.560295,-82.906151,"Clinton Township","48035","MACOMB"
"051e327b36a00c4c2d08f16a12c5ea0e",42.867726,-85.870369,"Hudsonville","49426","OTTAWA"
"051e462581966b4ea5eb339371c98af6",44.249454,-85.419174,"Cadillac","49601","WEXFORD"
"05273e888907e661379c5d772f5ec71b",42.349831,-83.059548,"Detroit","48201","WAYNE"
"052830d5643e25d592fed370624985fa",42.332747,-85.56739,"Kalamazoo","49004","KALAMAZOO"
"052f5144b34b2dd8c0c99713483eb06e",41.898068,-84.039138,"Adrian","49221","LENAWEE"
"05342dc7e5491e51a4e57cd38c72daa9",42.203354,-86.163756,"Hartford","49057","VAN BUREN"
"0536e30ebe97132fe5d43e45df03da5e",42.430582,-82.979535,"Detroit","48205","WAYNE"
"0538312daecfc3e10401dedd3d65f530",46.072317,-84.117271,"Stalwart","49736","CHIPPEWA"
"05394ddf808ee612eb5e78c7438cf47e",42.436174,-83.491611,"Northville Township","48167","WAYNE"
"053a2080fe84fbb9b3dd4dd251366498",42.526371,-82.88892,"Saint Clair Shores","48082","MACOMB"
"053bedd9a5331b22208b33bd12b9f83f",42.349831,-83.059548,"Detroit","48201","WAYNE"
"0540c403c0c4fa9a87c25ccb821d2865",42.732659,-84.556047,"Lansing","48901","INGHAM"
"0544613b9612a4c6f80f7b5f23c9cfde",42.749654,-84.744939,"Grand Ledge","48837","EATON"
"054590b11558cb2c576a1a366f909571",42.774841,-86.108125,"Holland","49423","OTTAWA"
"0547fc1e8d0f2dc75150a3ee04949b4f",42.560295,-82.906151,"Clinton Township","48035","MACOMB"
"054ae6686eb3f62f75dc5c8773ebc785",42.687547,-82.907869,"Macomb Township","48042","MACOMB"
"054af6eb91eca39c1975c73ede33300d",42.662567,-82.586891,"Algonac","48001","ST. CLAIR"
"05551a8e2d576a51919c188acb250e30",42.809956,-85.545562,"Caledonia","49316","KENT"
"0558b5ff69df2852a90d1730b614a768",38.632752,-90.323173,"Richmond Heights","63117",NA
"055b2bbe168a24a857a027c7aa20370b",42.421481,-83.103589,"Detroit","48203","WAYNE"
"055e197363a34ce8bc4d8a70673f40d4",42.052284,-83.388053,"Carleton","48117","MONROE"
"05608c43a6f80e5ca1333f37358b9147",42.349831,-83.059548,"Detroit","48201","WAYNE"
"0562691682e2997b2b8b32ba26553b05",42.671477,-85.999343,"Hamilton","49419","ALLEGAN"
"056e694b506e66ad440ec2f2d800ce40",47.12896,-88.576518,"Hancock","49930-2102","HOUGHTON"
"0570e97676a1089609b4e53eb0a1b493",42.306528,-83.181951,"Dearborn","48120","WAYNE"
"0571ab8b45385594f65040c2122d916f",42.849872,-82.914078,"Armada","48005","MACOMB"
"0573b0e86faa5b2435914a71383419fd",43.611223,-84.776711,"Mount Pleasant","48804","ISABELLA"
"057859a732a7fa3e8143e74cb7737ad2",42.732882,-83.036315,"Washington","48094","MACOMB"
"057e458afdab0970cc2584cfafa09ab4",42.648506,-83.412243,"Waterford Township","48327","OAKLAND"
"058e8c4c26f82b635effd8ea1f0a3fe5",42.231396,-83.6302,"Ypsilanti","48197","WASHTENAW"
"0591aa517d1ed5d718e5a246173d8e97",41.999871,-87.671283,"Chicago","60626-4097","COOK"
"0596a6a62ce4bfc923f1d5e2242655ee",42.91766,-83.986509,"Durand","48429","SHIAWASSEE"
"059c77c105f7f949d072f321a8defba4",42.269391,-84.953073,"Marshall","49068","CALHOUN"
"05a4accde2f7efefeb8c30c9c543ac86",43.028449,-83.60488,"Burton","48509","GENESEE"
"05b26499cc10d6da4cbd96e0362cb79a",42.980047,-85.698475,"Grand Rapids","49504","KENT"
"05b26bcb520ea941da0e85834e55985e",41.898068,-84.039138,"Adrian","49221","LENAWEE"
"05bce7282d044ea50119c171ce8595a0",42.464701,-85.616339,"Plainwell","49080","ALLEGAN"
"05bdd4162eb3b45273c2ca67a9d9daf7",43.016902,-85.724387,"Walker","49544","KENT"
"05c3203c2175adb2097e71a426a014b7",42.157042,-85.818036,"Lawton","49065","VAN BUREN"
"05c817a9685bf955e1e0e50595d3dcbb",42.42566,-83.253275,"Detroit","48219","WAYNE"
"05f104159c7b58c59e84642a2bb6e572",42.954016,-83.814249,"Swartz Creek","48473","GENESEE"
"05f3a0a59a24f38e1445e0415d5376b4",41.906478,-83.41815,"Monroe","48161","MONROE"
"05f7167f91f13f0115de1028d1c4f8d8",42.266835,-85.564718,"Kalamazoo","49001","KALAMAZOO"
"05fc9653b1ca5292908634ac42f31100",42.349831,-83.059548,"Detroit","48201","WAYNE"
"05fe413fb9fc882ca1a75ab778658997",43.047676,-85.676069,"Comstock Park","49321","KENT"
"0607a26f2369d126751d0f729ac4db32",43.407795,-83.912611,"Saginaw","48601","SAGINAW"
"060e211ecccf16f791eea4e97babd325",43.088793,-85.252258,"Belding","48809","IONIA"
"060f31025cc87f95f1a4140fe321a6c2",42.982035,-82.448487,"Port Huron Township","48060","ST. CLAIR"
"06115b4630fc251a078e9642973fa5ca",42.509822,-83.34597,"Farmington","48334","OAKLAND"
"061c83cc71dde96546a694927963e1cd",42.845627,-83.198505,"Oxford","48370","OAKLAND"
"061dec8cd4a808a99dd0d7f719fee879",28.003955,-81.751299,"Winter Haven","33880",NA
"0628e12c9c925d851b8f59fd3c9647e6",43.853575,-83.980321,"Pinconning","48650","BAY"
"062c05c07bbadc34cdddfbebda396104",42.841974,-84.569145,"dewitt","48820","CLINTON"
"0636b27770a36703cb1998a1b26471ca",42.663376,-83.589987,"Highland","48356","OAKLAND"
"063820813c13a0a01666c11df51ce868",45.249068,-85.149934,"EAST JORDAN","49727-9534","CHARLEVOIX"
"063e00a3abb5529f0ea24054e693497b",42.231396,-83.6302,"Ypsilanti","48197","WASHTENAW"
"0644f9f9d148d5b4212feaccded89c9e",40.186318,-84.779818,"Dayton","45390",NA
"064d288562397d54f4b2367e37672f7a",42.496696,-82.902742,"Saint Clair Shores","48081","MACOMB"
"06586cd2df248ee4aa3e910b94c6dc94",42.509874,-83.408043,"Farmington Hills","48331","OAKLAND"
"065d58dcbea9bfb16f731e6ae210f279",43.117455,-85.532964,"Rockford","49341","KENT"
"0660e8be0ababab6463ceac7c50961df",43.119468,-83.69552,"Mount Morris","48458","GENESEE"
"0664b1278afd4bf09dfe403eac664c75",42.509874,-83.408043,"Farmington Hills","48331","OAKLAND"
"066b7260cc85e5835b1e559cb0922771",43.043216,-86.202193,"Grand Haven","49417","OTTAWA"
"0675a8f632319a98160199a702d64938",42.462841,-83.18352,"Oak Park","48237","OAKLAND"
"06762c5f03cf31075b19c11f9e6fbc32",40.250727,-85.665878,"Hobert","46001",NA
"06770676c77dd1b33b007731376eb0a6",42.687547,-82.907869,"Macomb","48042","MACOMB"
"067a2a777e55eeaed1d6643bdefb138d",42.687547,-82.907869,"Macomb","48042","MACOMB"
"068111117d45d6473d564574d44ae689",42.509874,-83.408043,"Farmington Hills","48331","OAKLAND"
"0681d952a1d4dab60652649a8fad1220",42.06926,-86.478831,"Saint Joseph","49085","BERRIEN"
"068246ab33965427cda9b94a8fc16ec7",42.663303,-83.12877,"Rochester","48307","OAKLAND"
"068490d5ed0a91ed8176c108fb3111d8",42.728151,-84.417291,"Okemos","48805","INGHAM"
"06864487e4a23d4f2b91772fa534f2bf",42.732659,-84.556047,"Lansing","48901","INGHAM"
"068c7edde9252ffc0a4f6475d2cea7d9",42.197104,-83.483017,"Belleville","48111","WAYNE"
"06914c40dbd9f73fb12a90b369fd0ac8",42.687547,-82.907869,"Macomb Township","48042","MACOMB"
"069e901ed31275f35f4bbbfb59db7421",42.364273,-83.366557,"Livonia","48150","WAYNE"
"06b4f2e66be0a8cc277a1fed41e909ac",42.659767,-83.539739,"White Lake","48383","OAKLAND"
"06bd4fec94c63508e2bdcaa3b98387de",44.278866,-84.231733,"West Branch","48661","OGEMAW"
"06c43e187ea9edac2efdf65f41535672",42.100282,-84.559952,"Hanover","49241","JACKSON"
"06c48a7a73b446cc85d666c389144947",42.332747,-85.56739,"Kalamazoo","49004","KALAMAZOO"
"06c50e69381dbd19396cfc86c0d511a6",42.970397,-85.673043,"Grand Rapids","49501","KENT"
"06ce3907a89a2cc586acace6cb505a5b",43.660141,-83.973529,"Kawkawlin","48631","BAY"
"06ce478edefef9246397ea4464dca30e",42.498868,-83.370062,"Farmington","48333","OAKLAND"
"06d3182707b4a4c85e2cbfaff3c101c0",43.117455,-85.532964,"Rockford","49341","KENT"
"06d7734cd9981b726a79c6685e9904e8",42.421481,-83.103589,"Detroit","48203","WAYNE"
"06da050c50eddc1511e10b97b8e7162f",42.687378,-83.588833,"HIGHLAND","48356-1331","OAKLAND"
"06dc54ea7fbe36746bba9091a984eefa",42.564732,-83.068295,"Sterling Heights","48310","MACOMB"
"06e0f9307b787e1316f8ba4fef23b7d6",42.717665,-83.151926,"Rochester","48306","OAKLAND"
"06f2eb31e0283b0abeaa8ca777f43197",42.565473,-83.773632,"Brighton","48114","LIVINGSTON"
"06f3b4ec167d593ccc5e143c67ce22ae",42.687547,-82.907869,"Macomb","48042","MACOMB"
"06fa7e9d9e717d6b166f9af2ed305e45",42.781265,-83.038207,"WashingtonTwp","48095","MACOMB"
"070a27e58111f5abaf0d84906127d493",43.196577,-86.268222,"Muskegon","49441","MUSKEGON"
"070f3d076e1668a862becde3a442f38c",42.619944,-83.245758,"Bloomfield Township","48303","OAKLAND"
"07100331e1ed48eab09d0ef2334aebbf",42.815488,-85.711494,"Byron Center","49315","KENT"
"07112b949e670e0c7e73c56dd6790ca4",42.362512,-85.204594,"Battle Creek","49017","CALHOUN"
"071364dd0f7d99ec00b642ac0cad6670",42.003647,-83.965688,"Tecumseh","49286-1257","LENAWEE"
"0716b252daeb2b7b3e42f4f5d5130c3f",43.006275,-84.738297,"Fowler","48835","CLINTON"
"071bf6598c8d4012da8d57517b18c5da",41.651251,-86.162748,"Mishawaka","46544",NA
"071ca57084d87346098f1ec5ae8c7493",43.100945,-84.216203,"Owosso","48841","SHIAWASSEE"
"07277387e308b78312b04b9295b20dfb",43.064281,-83.698148,"Flint","48505","GENESEE"
"072ed1ae4c8ed6e0b6477df14eb7f0a7",42.732882,-83.036315,"Washington Township","48094","MACOMB"
"0730bd4bc585b7d04d0a89920610f09a",42.698972,-83.306457,"Auburn Hills","48321","OAKLAND"
"07333e9777f89ed603795d49dd5a91da",43.027367,-83.519155,"Davidson","48423","GENESEE"
"0736de7774b2023b189d1db14e237703",42.266835,-85.564718,"Kalamazoo","49001","KALAMAZOO"
"073a899fb3c82159686ef81170cc31e1",42.071851,-83.977725,"Clinton","49236","LENAWEE"
"0740733754cb19eafb6fdfdb208475e1",43.028449,-83.60488,"Burton","48509","GENESEE"
"074dcdf3325298ea201f88edaace22a2",41.952997,-85.638678,"Three Rivers","49093","ST. JOSEPH"
"075d9992def118aba6043abdc92ce669",42.266835,-85.564718,"Kalamazoo","49001","KALAMAZOO"
"0760d45a06187cab80419d26b85cda21",43.361817,-83.580158,"Vassar","48768","TUSCOLA"
"076246c6a02346b011cd92658841f4c7",42.99439,-85.635579,"Grand Rapids","49505","KENT"
"07662bacb9aea2dc2516d0509cc0562e",42.698972,-83.306457,"Auburn Hills","48321","OAKLAND"
"0766720be86dd0fd29bfb470d2c08df0",42.278511,-83.780196,"Ann Arbor","48103","WASHTENAW"
"076c1de535a80906cf708be8f58977cc",42.745195,-84.478924,"East Lansing","48823","INGHAM"
"076ce08751e8d00a9f3e32eabf6e1150",42.231223,-83.262935,"Taylor","48180","WAYNE"
"077492deaad7ae2842edb21e26c0cf89",42.137852,-83.219191,"Woodhaven","48183","WAYNE"
"077e29d1d954f39f6e81d8c7292e0840",42.531931,-85.862598,"Allegan","49010","ALLEGAN"
"0780063c938670bcee449c7d1487d6cf",42.507987,-83.10592,"Madison Heights","48071","OAKLAND"
"07822af742623d4809ddbbc5f912d27b",42.645701,-83.393183,"Waterford","48327","OAKLAND"
"0784e5c048f99b38f4a12da191a55d79",42.507987,-83.10592,"Madison Heights","48071","OAKLAND"
"0786c3fcd2bf918b1c8ffff0d60546c2",42.55997,-83.147539,"Troy","48007","OAKLAND"
"079475a371c59425ae6b5b3aa0eed66a",42.996342,-84.174835,"Owosso","48867","SHIAWASSEE"
"079ce127ceb4d498a4471e3704e43598",42.558166,-83.177805,"Troy","48084","OAKLAND"
"079cf579387da5b10ed57d38b6bb6aed",42.276486,-85.587227,"Kalamazoo","49001","KALAMAZOO"
"07a41d08b1a4b33bd07784e6964b652e",43.376901,-84.668149,"Alma","48801","GRATIOT"
"07a70465fc515d9f9757fc20a3a19e82",45.982673,-86.29485,"Manistique","49854","SCHOOLCRAFT"
"07a7eca502d99c68397e0b5c1be3c412",43.023316,-83.686511,"Flint","48501","GENESEE"
"07a8be026ce00abc6f4aef23e44b5db2",42.564732,-83.068295,"Sterling Heights","48310","MACOMB"
"07ae78cedf52e57d1a762f1fb895c1fb",43.608149,-84.239312,"Midland","48667","MIDLAND"
"07b47e19f5efc808ac7ea1793daaef8b",42.732659,-84.556047,"Lansing","48901","INGHAM"
"07b51a90b169f957e1cfa9fbc45f5c2d",42.771666,-84.55995,"Lansing","48906","CLINTON"
"07b8e68069cc52a17a71b56ba91a124e",42.663376,-83.589987,"Highland","48356","OAKLAND"
"07cd2f10796f87406e5fff0721a3dafb",43.584635,-83.878197,"Bay City","48708","BAY"
"07dff00aa72692bf747e6a50432108a0",42.55997,-83.147539,"Troy","48007","OAKLAND"
"07e00bb08df62961b609d380191448af",42.655742,-84.072927,"Fowlerville","48836","LIVINGSTON"
"07e853a5709f144dbfaaad846efa5307",42.278511,-83.780196,"Ann Arbor","48103","WASHTENAW"
"07f7cccdf45fafdc73904f6ec64d3b14",42.349831,-83.059548,"Detroit","48201","WAYNE"
"07fa79bc836b30b751e24f79632868ac",42.564654,-83.373171,"West Bloomfield","48323","OAKLAND"
"07fc058181442c497a60df092e15a14d",42.349831,-83.059548,"Detroit","48201","WAYNE"
"080204ddc485429a6ef34b2f70bb3307",42.553791,-83.121822,"Troy","48083","OAKLAND"
"080cc85eddfa0cd42de10fd9fea27764",43.407795,-83.912611,"Saginaw","48601","SAGINAW"
"080e006e2dac64b422bd4a2dc30a916c",42.595543,-83.795903,"Brighton","48114-8753","LIVINGSTON"
"082769ffb0af9bf2ae25757486b2213f",43.884441,-85.511698,"Reed City","49677","OSCEOLA"
"0829508fb4d07568de6a6c0452a67ccc",42.564732,-83.068295,"Sterling Heights","48310","MACOMB"
"0830b0ff125069d100daf61e8e1e0a90",42.37171,-83.481485,"Plymouth","48170","WAYNE"
"0836b667077e22084799c1b8b8f72a57",42.513495,-83.787948,"Brighton","48116","LIVINGSTON"
"0837c1b49f7379d4c1903aef310b1f40",47.755219,-122.201101,"Bothell","98011",NA
"08381f403bd47578552a4454f57371b9",42.673377,-82.777159,"Chesterfield","48047","MACOMB"
"084db16bf7402f57ab6cc7cf705f6e59",43.595334,-84.770835,"Mount Pleasant","48858","ISABELLA"
"08513fa5420114afb9baf8ebb24d74b5",42.518185,-82.982591,"Warren","48088","MACOMB"
"0856507b107fc7087554a2a934925cd0",42.518185,-82.982591,"Warren","48088","MACOMB"
"086151fdb13aca22b876db2023effd42",43.100945,-84.216203,"Owosso","48841","SHIAWASSEE"
"0864aa7a8f07e77c7901aa09b3c4124d",43.05088,-83.306385,"Lapeer","48446","LAPEER"
"086dc40622f4e4f888aa66dc7c18f22d",43.801554,-82.998981,"Bad Axe","48413","HURON"
"086f89e7c70665d7b99e5829782c1c46",42.961263,-85.661612,"Grand Rapids","49503","KENT"
"0870b852e71e6e786fe1fb804336c02b",42.982855,-85.064206,"Ionia","48846","IONIA"
"087108296cc10f2bd8c5f301835b7cc1",46.226741,-84.594777,"Rudyard","49780","CHIPPEWA"
"0876af69d70469764ea7fa290f46d1eb",42.111806,-83.289136,"Flat Rock","48134","WAYNE"
"08867e28625c57494a0e4bf7746f0a0f",43.607768,-83.827747,"Essexville","48732","BAY"
"088740e30816aa16867a289aaf4fa808",45.094771,-87.644802,"Marinette","54143",NA
"088f053562bbe4c383cb7d9843ea95e4",44.759196,-85.668523,"Traverse City","49684","GRAND TRAVERSE"
"08907fa933781d139305af4ab82a84d1",43.196577,-86.268222,"Norton Shores","49441","MUSKEGON"
"0891824d38daf8efad56469c57c9f2f7",33.975749,-118.250489,"Los Angeles","90001",NA
"0894e0aa50236fe3cb2835d76065431d",41.641566,-83.545281,"Toledo","43601",NA
"0899d04f58d8c51c43850850baccee59",42.123702,-84.472604,"Horton","49246","JACKSON"
"089c2e83261048dd67290c5e0647c0e8",42.242886,-83.181212,"Lincoln Park","48146","WAYNE"
"08a60cdfe07d68c6e229cb5a83af8f21",43.422068,-83.974986,"Saginaw","48602","SAGINAW"
"08ab09a5e105a4628212b258dd2d675e",42.306528,-83.181951,"Dearborn","48120","WAYNE"
"08b050f1ed07e0c709f90ed126adc1a9",41.906478,-83.41815,"Monroe","48161","MONROE"
"08b2450de8a0f6835689cffca6caa35c",43.695948,-85.486703,"Big Rapids","49307","MECOSTA"
"08d04d9602d778e6412bc53ddd64729f",43.601913,-83.91718,"Bay City","48706","BAY"
"08d32465580389d000044ea825e40a91",42.488953,-83.145672,"Royal Oak","48068","OAKLAND"
"08dee55365702a608b582636e1d02360",43.452806,-83.975593,"Saginaw","48603","SAGINAW"
"08eb0d6c1a5c3876107eb8c0bd436eb5",42.926933,-83.035225,"Almont","48003","LAPEER"
"08f3f987029f5fe99d2bb9beefe8c16c",42.593143,-83.494152,"Commerce Township","48382","OAKLAND"
"08f7d86dd683286027cb19d9ff9bc085",43.01543,-85.623683,"Grand Rapids","49505-3492","KENT"
"08f9cdc21384506bc1c8d45d071f2a6b",42.646987,-82.927716,"Macomb Township","48044","MACOMB"
"091278d3843e70548ab87a5aee6772e3",45.635989,-84.637821,"Cheboygan","49721","CHEBOYGAN"
"0913fdf50492492700326caacfa3ffa8",42.682978,-84.834173,"Grand Ledge","48837","EATON"
"091a6b219f20754861099d0ca9b8652a",42.32935,-83.482506,"Canton","48187","WAYNE"
"09204b0eb8b28cc45ebad79d17b2794f",43.002711,-84.558415,"Saint Johns","48879","CLINTON"
"093709bdb72f8d727e1fdb824480416d",43.584635,-83.878197,"Bay City","48708","BAY"
"0938ed7c473f569162325594accb99af",42.502868,-83.04667,"Warren","48090","MACOMB"
"0939069b95638acd7e26a6ad041ddb30",42.430582,-82.979535,"Detroit","48205","WAYNE"
"0953fe4bc2200b38fa92996dc2c01f3b",42.66726,-83.001039,"Shelby Township","48315","MACOMB"
"09574e5b9dfd96dc6cf65a176e19a6b2",42.27951,-83.74722,"Ann Arbor","48107","WASHTENAW"
"09579b86a62293102b46da68d8907c37",42.564732,-83.068295,"Sterling Heights","48310","MACOMB"
"0959053d383305313050c31b33aae1a2",45.126488,-85.615799,"Northport","49670","LEELANAU"
"096087e591c16706dc103d554cccfacc",42.55997,-83.147539,"Troy","48007","OAKLAND"
"09633df6e533fae2757b6bfea889cb0a",42.446551,-83.513012,"Northville","48167","OAKLAND"
"0963f1a7470d1fa6f969296ca04aa0cd",42.278511,-83.780196,"Ann Arbor","48103","WASHTENAW"
"096b1067b1982444a4fa76700745b039",42.970397,-85.673043,"Grand Rapids","49501","KENT"
"0971268950e4728dfc3ec35e0bb9e319",43.458841,-82.553298,"Port Sanilac","48469-9771","SANILAC"
"0971f76c1da45bb20d3b54cb871e7ae7",42.560295,-82.906151,"Clinton Township","48035","MACOMB"
"097741f8a6465f21608d4642c104cf00",42.266835,-85.564718,"Kalamazoo","49001","KALAMAZOO"
"0977a58f7e7ae19c5215095211f7f8f3",42.692783,-83.38959,"Waterford","48329","OAKLAND"
"0983be52f4850b868473d54965165422",42.11511,-84.347514,"Clarklake","49234","JACKSON"
"098ebcd555d5194371329775ce88e1e6",43.235857,-86.250162,"Muskegon","49440","MUSKEGON"
"09a30c57ac6badf00212a49558885422",44.115668,-85.443403,"Tustin","49688","OSCEOLA"
"09a537a40f0baf68d241cbfbfcb8289b",43.601913,-83.91718,"Bay City","48706","BAY"
"09b2c193db08fbe0299d6e107e2c990f",42.732659,-84.556047,"Lansing","48901","INGHAM"
"09bd49ec9dfe018296572ce7e17d2526",32.690302,-97.134199,"Arlington","76015",NA
"09c64366bf073d7a63d4e3e6b1aa04db",42.108735,-86.421699,"Benton Harbor","49022","BERRIEN"
"09c722e95b32865a4877af9a1e1eabfe",42.231396,-83.6302,"Ypsilanti","48197","WASHTENAW"
"09ca492143ccfec2747f368162af3ed0",42.310959,-85.140363,"Battle Creek","49014","CALHOUN"
"09d4ae4b11760645c34f3b784687cc02",42.722915,-83.418623,"Clarkston","48347","OAKLAND"
"09e97bf1b42d29148702d590dd6549b5",42.093981,-83.68024,"Milan","48160","WASHTENAW"
"09ef493f6b15605c05973227ddb434e7",45.721485,-87.268368,"Bark River","49807","DELTA"
"09ef669aae39136f9bd917932ba5325e",43.100945,-84.216203,"Owosso","48841","SHIAWASSEE"
"09f62300b46fb70b0e13bb9da72f1f7b",42.430176,-83.768848,"Whitmore Lake","48189","LIVINGSTON"
"0a01148cfcfe93892485d9b736d934d4",42.728151,-84.417291,"Okemos","48805","INGHAM"
"0a0da0cdec0dfa83e75f442353f692b0",42.029789,-85.808886,"Marcellus","49067","CASS"
"0a0e04310cbfcc81aecdd74b75b92b35",43.522133,-84.133132,"Freeland","48623","SAGINAW"
"0a0ff02afff51bf42306977442c9442f",43.420675,-83.945579,"Saginaw","48605","SAGINAW"
"0a130f593a68435dd497bce13c896f1b",42.579186,-84.449182,"Dansville","48854","INGHAM"
"0a1a34266b91b6417be15df58090bfdd",42.462124,-82.901074,"Saint Clair Shores","48080","MACOMB"
"0a1f1750134ccb86f32f1c48d4c0b203",42.335198,-83.387924,"Westland","48185","WAYNE"
"0a1fa9307d9a8cd1ea01686819a9f0d6",42.726106,-84.475204,"East Lansing","48825","INGHAM"
"0a28fbf1a25c4ebe017f3e25b03b9552",28.300883,-81.418283,"Kissimmee","34742",NA
"0a3dc00233272bf1a378cb9cd07e4497",42.593143,-83.494152,"Commerce","48382","OAKLAND"
"0a43887e3784520051cdede75138a876",43.117455,-85.532964,"Rockford","49341","KENT"
"0a4a39e09cc0c18ecdad4f2519922db0",42.745195,-84.478924,"East Lansing","48823","INGHAM"
"0a4bf6e6cf659f5432e4bffc0e814c1b",41.906478,-83.41815,"Monroe","48161","MONROE"
"0a5d565b44693999e7f6f84c86c9efb3",42.349831,-83.059548,"Detroit","48201","WAYNE"
"0a617f86f350d410016600cd086e1d4b",44.644079,-85.703877,"Grawn","49637","GRAND TRAVERSE"
"0a68a8398475b9b0262118b8fb45aa47",42.834326,-83.028398,"Romeo","48065","MACOMB"
"0a6bb99494ee51c72dabb007345da067",42.717665,-83.151926,"Oakland Township","48306","OAKLAND"
"0a7307e827dba9b9737c574277b318a0",42.732659,-84.556047,"Lansing","48901","INGHAM"
"0a731cd503f55805daa36b4168aa54f8",42.970397,-85.673043,"Grand Rapids","49501","KENT"
"0a80314f2c494252ade96e13d6bb79ee",42.888369,-85.765172,"Grandville","49418","KENT"
"0a904a25b3bd5753804554ce1b57e7a5",42.717665,-83.151926,"Rochester","48306","OAKLAND"
"0a95384d070af2dbca1298afc2064a2b",42.012057,-84.188407,"Onsted","49265","LENAWEE"
"0a97deb155ebf634d9a13cf8af881c29",42.521437,-83.76121,"Brighton","48116-1924","LIVINGSTON"
"0a9e41bb0d652f15db73225356443d26",42.687547,-82.907869,"Macomb Township","48042","MACOMB"
"0aa257997aa5fd9931318bdb8a446924",44.115668,-85.443403,"Tustin","49688","OSCEOLA"
"0aa9193ad3b1d8b3a1068aa826aadcc7",42.93728,-83.988628,"Durand","48429","SHIAWASSEE"
"0aaca77630e91b81f4892aeec5ff20f4",42.518185,-82.982591,"Warren","48088","MACOMB"
"0ab77f0328770ff41398b8f523eceff5",42.459863,-83.134367,"Ferndale","48220","OAKLAND"
"0ac0363cf0a743463824b0b385b88390",42.809956,-85.545562,"Dutton","49316","KENT"
"0ac359c04d00e512a497b1980911007b",42.247517,-84.396211,"Jackson","49201","JACKSON"
"0ac597247c87599d5a1b857affa62962",42.614692,-82.97467,"Sterling Heights","48313","MACOMB"
"0ad1ba105730bdea9b1ff7c222c39ebe",42.634891,-82.955991,"Macomb Township","48044","MACOMB"
"0ad733c2a9ebe6445efc858b3b3fb127",42.732659,-84.556047,"Lansing","48901","INGHAM"
"0ad76e0e2005b229990b25dac666c304",42.306528,-83.181951,"Dearborn","48120","WAYNE"
"0adf1237959ef77668714fedff10989d",42.137852,-83.219191,"Brownstown","48183","WAYNE"
"0ae023b391f52f9e5611255de410d59b",42.978624,-83.6971,"Flint","48507","GENESEE"
"0ae0469d53fb0cfe865bbba98fd0ab43",42.564654,-83.373171,"West Bloomfield","48323","OAKLAND"
"0ae4635663dfba51cbc91e279f89464f",42.874271,-84.066197,"Bancroft","48414","SHIAWASSEE"
"0af3a97ce6e505badd35bd21dbc0457c",43.376901,-84.668149,"Alma","48801","GRATIOT"
"0af3b3972416c119377d63bd599c482b",43.337933,-85.810704,"Grant","49327","NEWAYGO"
"0b0020ea5010dd6655212f8c5e819801",42.239435,-83.584198,"Ypsilanti","48198","WASHTENAW"
"0b0e7a2837753616b3ed4a8c51102bcb",42.783149,-83.72156,"Fenton","48430","GENESEE"
"0b16216e62dda1d62c8c04bd8fba4807",42.667678,-83.28278,"Pontiac","48340","OAKLAND"
"0b182bb6ac73080371615f204686da0c",44.240193,-86.311342,"Manistee","49660","MANISTEE"
"0b18625a8b57aec7348cc488fc44e856",42.328872,-83.044513,"Detroit","48226-3473","WAYNE"
"0b2788dc804a6f6588cb1e061308528b",42.108735,-86.421699,"Benton Harbor","49022","BERRIEN"
"0b2ce52babe18809b503e6d23b7f9d25",42.717665,-83.151926,"Rochester","48306","OAKLAND"
"0b2e53ebf50cb7848643298ade8ea899",42.497134,-83.289913,"Southfield","48034","OAKLAND"
"0b3105f05fa8fedc0f4485803ff3da71",42.270064,-83.730575,"Ann Arbor","48104","WASHTENAW"
"0b36a837735328150aa4a3f7a3c7d08e",42.32935,-83.482506,"Canton","48187","WAYNE"
"0b38c07ae6b4337256cac43703f61f66",42.218079,-83.382295,"Brownstown","48174","WAYNE"
"0b3e4b0d255391e912759fd830ddac99",42.373206,-83.109352,"Detroit","48206","WAYNE"
"0b489712ebf5127e27170a49bc2722df",42.82034,-86.139148,"Holland","49424","OTTAWA"
"0b49c8ade29585012d17841ceb919ef8",42.269391,-84.953073,"Marshall","49068","CALHOUN"
"0b5a80a3f38efe85171996a5ff06c505",41.818408,-86.234139,"Niles","49120","BERRIEN"
"0b5f6a612c327698b540297598931acb",42.970397,-85.673043,"GRAND RAPIDS","49501","KENT"
"0b6632ee8b1352ef9c6a63588d88b6c3",42.237041,-83.645581,"Ypsilanti","48197","WASHTENAW"
"0b6d46e6902188a9822a3584ced91a1e",42.518185,-82.982591,"Warren","48088","MACOMB"
"0b6df6a38824df5c8762815e093ad0c8",42.538285,-83.384457,"West Bloomfield","48322","OAKLAND"
"0b8210f81e0adbd1bf0e0a8855df5038",41.904302,-85.996205,"Cassopolis","49031","CASS"
"0b84621286b914e3c159d59bed41b9b1",46.057329,-84.551496,"Hessel","49745","MACKINAC"
"0b89cbd779b17954eb463d3ca999a1d5",42.831218,-85.420442,"Alto","49302","KENT"
"0b8b35d53242f5606c51c9faeb488714",43.053988,-83.327384,"Lapeer","48446","LAPEER"
"0b951177d026e58ab2819a7d46db7a89",42.378316,-84.695049,"Springport","49284","JACKSON"
"0b9a4a5f4c18899c00f253c208194c7b",45.412149,-84.607163,"Indian River","49749","CHEBOYGAN"
"0b9cded5c941ec140b1717d90485296d",42.313878,-84.032737,"Chelsea","48118","WASHTENAW"
"0b9ecd028c5c144d90b5e7e3596f64d8",44.278866,-84.231733,"West Branch","48661","OGEMAW"
"0ba112b589934e165f453a6b1a46add5",45.013243,-84.675804,"Gaylord","49734","OTSEGO"
"0ba8965a6ae38292ca2e9df6a4b65e17",42.218079,-83.382295,"Romulus","48174","WAYNE"
"0bad357b7f92ac39a09a17a740c85f41",42.37171,-83.481485,"Plymouth","48170","WAYNE"
"0baf681339b593730e8a0f1e9326257c",43.611223,-84.776711,"Mount Pleasant","48804","ISABELLA"
"0bbcbddb513b249d92a868eba6144161",43.667348,-84.367959,"Sanford","48657","MIDLAND"
"0bc9ca4b4e5e39e5bc96349a74f7b4a5",42.239435,-83.584198,"Ypsilanti","48198","WASHTENAW"
"0bd2c24b0fd51e45ef83af32641ad5ca",42.951882,-85.63843,"Grand Rapids","49506-2611","KENT"
"0bd9d6e9b09cf65cefb36b012dc2bc69",44.566563,-85.538283,"Kingsley","49649","GRAND TRAVERSE"
"0bda8fed965195c1fdfe794d074de035",42.66726,-83.001039,"Utica","48315","MACOMB"
"0bddececadad5e8724ffc3202711f1ee",42.602834,-83.449792,"Commerce Township","48382","OAKLAND"
"0be9ae7d3eb4e054b0e1137e752461e7",42.306528,-83.181951,"Dearborn","48120","WAYNE"
"0bf8431bc86993810af8d856454840b5",42.564732,-83.068295,"Sterling Heights","48310","MACOMB"
"0bf965f5928f87b3322eec0bd47a218b",41.786115,-86.750165,"Grand Beach","49117","BERRIEN"
"0c08aae3f8187441712d055a02117dee",41.906478,-83.41815,"Monroe","48161","MONROE"
"0c0ae6d4480293ee5dd165dd12d53d95",42.538285,-83.384457,"West Bloomfield","48322","OAKLAND"
"0c22d8abd5ec11be74bbe90e341856db",44.489773,-84.663549,"Roscommon","48653","ROSCOMMON"
"0c2a6e721c36dd80956e26a20845786d",42.667678,-83.28278,"Pontiac","48340","OAKLAND"
"0c2e78f7ed4e3e1103e778337b7cacff",42.66726,-83.001039,"Shelby Township","48315","MACOMB"
"0c330afee2bc84dd813b31c54da3eb74",42.560295,-82.906151,"Clinton Township","48035","MACOMB"
"0c45f9fe937d5ddc13fd2e708a46ffe5",43.206898,-83.220065,"North Branch","48461","LAPEER"
"0c4be177e3c71bbf57dddb06b2f0afc6",44.633272,-85.798708,"Interlochen","49643","GRAND TRAVERSE"
"0c5760a31acf031f4c27615e8a3ffd0f",42.555532,-83.002572,"Sterling Heights","48312","MACOMB"
"0c655526506295907afa7f5cabf8471e",42.497116,-85.246407,"Dowling","49050","BARRY"
"0c6618b4b05d1139939509a043106c89",42.996342,-84.174835,"Owosso","48867","SHIAWASSEE"
"0c6a00a33d7cef89dd87d1aef24f4c0f",42.797362,-83.027612,"Washington","48095-2906","MACOMB"
"0c7c811e7c84e85d4bb59cb005b4739d",42.598308,-83.905675,"Howell","48843","LIVINGSTON"
"0c85754ec9cecf480c7ebead00229310",42.000082,-83.950222,"Tecumseh","49286","LENAWEE"
"0c94e9bf70343fd3d572b12f35648e6c",43.117774,-83.692387,"Mount Morris Twp","48458","GENESEE"
"0c96ed878adaa6dca2e42c2cc1c12a4d",42.565598,-83.038545,"Sterling Heights","48311","MACOMB"
"0ca2a83183df08b6f4cb8c8afa70fd8d",43.325839,-83.077244,"Marlette","48453","SANILAC"
"0ca7e370c122f09f216fdf8c9dfcfe11",44.044355,-88.536457,"Oshgosh","54901",NA
"0ca96fc985ac48b07ee66ed511905b4a",43.600148,-83.887475,"Bay City","48707","BAY"
"0cc49edd13e87187f9a295a91e814add",43.235857,-86.250162,"Muskegon","49440","MUSKEGON"
"0cc948e1546753657fe9a5f144077e2b",43.023316,-83.686511,"Flint","48501","GENESEE"
"0ccba03e2d701f29e3aad7591508f7ab",44.278866,-84.231733,"West Branch","48661","OGEMAW"
"0cd181e309c072caa931b503e9897769",42.970397,-85.673043,"Grand Rapids","49501","KENT"
"0cf476bf0190b85331b5bd0eed454452",45.745765,-87.084089,"Escanaba","49829","DELTA"
"0cfedc6fae6fbe6c09a928b548c88b38",42.970397,-85.673043,"Grand Rapids","49501","KENT"
"0cffea4c4271a0989fe2523c2a06313d",42.982855,-85.064206,"Ionia","48846","IONIA"
"0d03afed2770aa266b599829f5e1ba1e",42.506705,-82.938166,"Roseville","48066","MACOMB"
"0d0d2eb3dd0d83f75bc10ce586fb8b9b",44.410796,-85.40741,"Manton","49663","WEXFORD"
"0d0e11bb30817b98e300ec647710012d",42.247517,-84.396211,"jackson","49201","JACKSON"
"0d11db3a8340d9698c7bab3df7036353",42.745195,-84.478924,"East Lansing","48823","INGHAM"
"0d17186cc179de331c05c7e0799270d3",42.230901,-84.412011,"Jackson","49203","JACKSON"
"0d1a31890c3fa08df221e1468ef743b6",44.779981,-85.486461,"Acme","49610","GRAND TRAVERSE"
"0d2a9e021fe7c8ea102fac8017407c52",43.407795,-83.912611,"Saginaw","48601","SAGINAW"
"0d2b6dda8b48276bcc51a2171705d3a9",42.698972,-83.306457,"Auburn Hills","48321","OAKLAND"
"0d2dc2b7d9f8af3d6fc40315eace850c",42.468272,-83.519582,"Novi","48374","OAKLAND"
"0d2e43356b3bdfb4567ff4024ad36bcb",42.507987,-83.10592,"Madison Heights","48071","OAKLAND"
"0d2e81d56b1072fa935d69bf2ceba5b6",43.429525,-84.598219,"Saint Louis","48880","GRATIOT"
"0d2fde710efae830833303a9413e975d",41.956245,-84.931688,"QUINCY","49082-9446","BRANCH"
"0d324c044f462aa484cd71742be44d45",33.227855,-97.17378,"Denton","76207",NA
"0d35ea028d55822441aa7212b2534e0d",43.853575,-83.980321,"Pinconning","48650","BAY"
"0d3c069fd50db99c6f66c2389c9fc555",42.564732,-83.068295,"Sterling Heights","48310","MACOMB"
"0d3c13c988667d997e3d52cd4a8d6a40",43.018339,-85.607928,"Grand Rapids","49525","KENT"
"0d3f6e642977ef42548940d51b1b7ff6",42.698972,-83.306457,"Auburn Hills","48321","OAKLAND"
"0d3fe464b313239995dd6fbf435e64af",42.980047,-85.698475,"grand rapids","49504","KENT"
"0d404c0b804cc18f5f57852a89ff3190",46.370062,-86.394111,"Shingleton","49884","ALGER"
"0d4d01027d3448c7400b0c8990c89470",42.598308,-83.905675,"Howell","48843","LIVINGSTON"
"0d585988c8e071e84de706c2064dd405",42.502868,-83.04667,"Warren","48090","MACOMB"
"0d59882d9351d869247842ddc0ec0bb6",42.817663,-86.017472,"Zeeland","49464","OTTAWA"
"0d5f1910ce65cd9995df6b3dc7e09faa",42.752022,-84.55327,"Lansing","48906-4337","INGHAM"
"0d5f434a47e8c85527fd2754f50b23f8",41.818408,-86.234139,"Niles","49120","BERRIEN"
"0d66334bc33b321eb9a7a88de7bcd9de",42.888369,-85.765172,"Wyoming","49418","KENT"
"0d690bae32fdafcfbe6f99a26dc580c9",42.196288,-85.247399,"East Leroy","49051","CALHOUN"
"0d6958e7a557f7cb49fc82f6ce0abec2",41.87246,-83.692135,"Petersburg","49270","MONROE"
"0d749d653320b694f2286ce20e59b7b6",42.349831,-83.059548,"Detroit","48201","WAYNE"
"0d750779dc4d41f586298b888649797b",42.926811,-83.637671,"Grand Blanc","48439","GENESEE"
"0d767dbeb0ee354cd5e4f60c26667d5d",42.513495,-83.787948,"Brighton","48116","LIVINGSTON"
"0d7b899d44d981d7a0ae9bafdadfdb1e",42.349831,-83.059548,"Detroit","48201","WAYNE"
"0d7c844c4c1a81f9b3c63ef5b2bfa875",42.745195,-84.478924,"East Lansing","48823","INGHAM"
"0d7d8f27c9373eea2dbeeec0f7ac37d5",43.217195,-83.411175,"Otter Lake","48464","LAPEER"
"0d82a733f8f71a0d75361b3af809aac8",42.867726,-85.870369,"Hudsonville","49426","OTTAWA"
"0d8484246627228e31788a5d7f18ceca",42.630124,-82.558308,"St Clair","48001","ST. CLAIR"
"0d84a08e99e8e90d60d0d7cdc9492954",43.206898,-83.220065,"North Branch","48461","LAPEER"
"0d88e8ad4a0b79fe8557240e78a48142",42.721283,-83.285023,"Lake Orion","48359","OAKLAND"
"0d8d8b6adcd8946a3e0e1cbba196c0ec",43.602962,-83.172637,"Cass City","48726","TUSCOLA"
"0d8dca72c816763b34e4d55c6f08d2e8",43.027367,-83.519155,"Davison","48423","GENESEE"
"0da4e5915ea44d84c0ba08dc7bdd7d97",43.940092,-82.994519,"Kinde","48445","HURON"
"0da5f08db7a083b3d1bbaa178791ab29",42.349491,-83.541968,"Plymouth","48170","WAYNE"
"0daa01a7171f213946394c58d0f56f57",42.564732,-83.068295,"Sterling Heights","48310","MACOMB"
"0dab5b0fad6e191fc583de506350b0ae",43.235857,-86.250162,"Muskegon","49440","MUSKEGON"
"0db4f9e255b184acfa870786f1f83266",42.338006,-83.888246,"Dexter","48130","WASHTENAW"
"0dc334ba013ef57c3039bb260992c5d9",42.37537,-83.042455,"Hamtramck","48211","WAYNE"
"0dc929e6e8d19ba2b01c716ba5c95786",43.236989,-86.179766,"Muskegon","49442","MUSKEGON"
"0dcca411d77280eb1bc50e81858a143c",41.796664,-86.040675,"Edwardsburg","49112","CASS"
"0dd9ec78475ec0ad441c807ea6f9142c",42.564732,-83.068295,"Sterling Heights","48310","MACOMB"
"0ddc3bcceaf644be8a0ebe35b49fbd63",41.898068,-84.039138,"ADRIAN","49221","LENAWEE"
"0de68e1b2795857c1a1a78009aa1cb37",42.653952,-83.279784,"Pontiac","48342","OAKLAND"
"0df374ef9d4af7216e30160050fb5008",43.139202,-84.173282,"Oakley","48649","SAGINAW"
"0df42cd00ce8d37495915c272fbcd33b",43.850756,-85.409791,"Hersey","49639","OSCEOLA"
"0dfe5f4e77c636d7c78289b2d2ba4c1f",42.553791,-83.121822,"Troy","48083","OAKLAND"
"0e07c95132feebf527cba12a66c91074",42.37049,-83.352517,"Livonia","48151","WAYNE"
"0e1a0032a242a463fd70022b784994e7",42.349831,-83.059548,"Detroit","48201","WAYNE"
"0e1de075d2b4af970207a6fc3e2651c6",42.231396,-83.6302,"Ypsilanti","48197","WASHTENAW"
"0e217aa1c35aeaf638f2f8cbc2cc49b2",41.766865,-83.574793,"Temperance","48182","MONROE"
"0e21967440844fa26c8241c17e2a0665",33.711286,-78.928155,"Myrtle Beach","29579-7323","HORRY"
"0e323104d8390679d823dd90fe9387f5",42.677696,-84.56673,"Lansing","48911","INGHAM"
"0e337fc99883c220eb213f48d8c86b88",42.564732,-83.068295,"Sterling Heights","48310","MACOMB"
"0e37fc9c83ad75ed5f7023af41d48c97",42.231396,-83.6302,"Ypsilanti","48197","WASHTENAW"
"0e3af58b0a0bd1af08eb654b749026ab",43.601913,-83.91718,"Bay City","48706","BAY"
"0e3d49c503b017ea92e7857d4131e992",42.564732,-83.068295,"Sterling Heights","48310","MACOMB"
"0e42388a0faeaaa2af74222d675551ae",42.667678,-83.28278,"Pontiac","48340","OAKLAND"
"0e5ef8f86b7f559462aae99d61bfd80d",43.235857,-86.250162,"Muskegon","49440","MUSKEGON"
"0e5fbbd9b2f9acaabac0a7914d9ff3d8",42.538285,-83.384457,"West Bloomfield","48322","OAKLAND"
"0e6112c767fc302445ad109017a17b65",43.117774,-83.692387,"Mount Morris Township","48458","GENESEE"
"0e615520c8e9e36726496ff71bf47e39",43.819973,-84.760289,"Clare","48617","CLARE"
"0e627d0a3571c7bdc3dcee8c89523cd4",42.652493,-82.925218,"Macomb","48044","MACOMB"
"0e68373d06da1c79cb50df34ecc38c7c",42.203354,-86.163756,"Hartford","49057","VAN BUREN"
"0e68b92fc2b3741f92db5a73fbd2ccdc",42.36577,-83.143091,"Detroit","48204","WAYNE"
"0e6c9d6479bdd8c37ddb461acbf6a82e",44.566563,-85.538283,"Kingsley","49649","GRAND TRAVERSE"
"0e6ce97ad02c11e3fbc35e2c31159b56",42.717665,-83.151926,"Oakland Township","48306","OAKLAND"
"0e7285f9b3e553fce16de64a8593aa26",43.613948,-85.129376,"Remus","49340","MECOSTA"
"0e77621e23279796e3fe48e50c38703e",42.538285,-83.384457,"West Bloomfield","48322","OAKLAND"
"0e7faf5ce4b2f4a333b204dea1b262f2",45.094771,-87.644802,"Marinette","54143",NA
"0e80c454df768b6a72b2a4ff3796362d",42.565598,-83.038545,"Sterling Heights","48311","MACOMB"
"0e8139e7e600eef924a585c11f16925d",42.687547,-82.907869,"Macomb","48042","MACOMB"
"0e869e57139f172e6ba5b83ab5039973",42.771666,-84.55995,"Lansing","48906","CLINTON"
"0e886f70c7f0161d90ab1a9b0a87e305",30.738397,-88.08307,"Prichard","36610",NA
"0e8965e765158bf17510aa8336c9dbdd",42.518185,-82.982591,"Warren","48088","MACOMB"
"0e96e96421a3bbc95b5915ff84bd67d0",43.741524,-85.165089,"Barryton","49305","MECOSTA"
"0e9fa4528fc36f2bb44917ff0622d5a7",41.905088,-84.631704,"Hillsdale","49242","HILLSDALE"
"0e9ff449fb936db93a132e5e260587e2",42.970397,-85.673043,"Grand Rapids","49501","KENT"
"0ea2b80668046497767a9eafc6b6c5e0",42.959522,-85.496286,"Ada","49356","KENT"
"0eaa360a80ccff04c603170bce4497c3",43.182267,-86.215483,"Muskegon Heights","49444","MUSKEGON"
"0eaa9ae63021a1ad48f65e8d50b2a39c",42.518185,-82.982591,"Warren","48088","MACOMB"
"0eae74c92b4f8718e11fe5bb5bd5e1df",43.182267,-86.215483,"Muskegon Heights","49444","MUSKEGON"
"0eb274e3db357614eee2340b83766cde",42.538285,-83.384457,"West Bloomfield","48322","OAKLAND"
"0eb60151782fa108fcc80ddd5cb12d79",41.641566,-83.545281,"Toledo","43601",NA
"0ebaad6bf4a137b7b87185b2fa252d34",42.732659,-84.556047,"Lansing","48901","INGHAM"
"0ec11e25ba0e8499ea6efa595277877a",42.223144,-85.789338,"Mattawan","49071-9303","VAN BUREN"
"0ec6a487d02a6bc17e0f47ac12615901",43.601913,-83.91718,"Bay City","48706","BAY"
"0ecdccecce783f179ae0802ba1badcd6",42.828624,-82.775225,"Richmond","48062","MACOMB"
"0edd31dba1567d94f1dc18a7ce3d33b8",43.343885,-83.362658,"Mayville","48744","TUSCOLA"
"0eeb07ce55342dcfdf1dcf922bcf787c",42.584266,-82.834488,"Harrison Township","48045","MACOMB"
"0ef359d9ce401fcad19c8770826875cf",43.660141,-83.973529,"Kawkawlin","48631","BAY"
"0ef57e8b98b7d19c65b85bce70d7e9c7",42.108073,-86.464582,"Benton Harbor","49023","BERRIEN"
"0ef920b5ddfb31e43d82f7d3a453d430",42.266835,-85.564718,"Kalamazoo","49001","KALAMAZOO"
"0ef9d3c7dabbf888e11263778197780c",42.834326,-83.028398,"Romeo","48065","MACOMB"
"0efb744a49f6cd58205cb61c9366b4e0",42.550509,-83.48123,"Walled Lake","48390","OAKLAND"
"0efc6f553520daea1d3ee1e07982e2da",42.349831,-83.059548,"Detroit","48201","WAYNE"
"0efd7fc6d7796cf3119313405c3cad9e",42.407673,-83.060588,"Hamtramick","48212","WAYNE"
"0f02d2073565e74a42fd30d72911d82f",42.349831,-83.059548,"Detroit","48201","WAYNE"
"0f13c8c9b1ca7b66d908c8dd7cb7fa99",42.509874,-83.408043,"Farmington Hills","48331","OAKLAND"
"0f156be4e1d923400fe44ede58b68f4b",42.513495,-83.787948,"Brighton","48116","LIVINGSTON"
"0f15b4fb10cdea6e98498005e8bdcba0",44.783159,-85.572232,"Traverse City","49686","GRAND TRAVERSE"
"0f1654c43c9e601f353f7792312da67a",42.421481,-83.103589,"Detroit","48203","WAYNE"
"0f1b005e277673d2ba9f4423b5c31e06",43.857481,-84.883541,"Farwell","48622","CLARE"
"0f1d2f63a31eb8b7aa73daa5f838c3cb",41.87246,-83.692135,"Petersburg","49270","MONROE"
"0f286f9b5811b4681bda714074bd355c",42.518185,-82.982591,"Warren","48088","MACOMB"
"0f43d01cad9e0ddb2729cafd076f0309",42.698972,-83.306457,"Auburn Hills","48321","OAKLAND"
"0f442ec45a0698f15984aa0da327ff71",42.789433,-83.616149,"Holly","48442","OAKLAND"
"0f471ce45baff4bc4e17ff5497c5732e",41.898068,-84.039138,"Adrian","49221","LENAWEE"
"0f47933b0bdf3fc7211a32813842ed1f",42.601326,-83.404873,"West Bloomfield","48324","OAKLAND"
"0f5266b3c937f7ff852725f4eb2869a1",43.017295,-83.6905,"Flint","48502","GENESEE"
"0f53b346db17961462db2198e7e698f6",42.486657,-83.140649,"Royal Oak","48067","OAKLAND"
"0f55f4871b85e62e3105645171b6033a",42.704568,-82.542141,"Marine city","48039","ST. CLAIR"
"0f5bab4eb8ba5f1e50b09df43ab903bd",42.751484,-83.268227,"Lake Orion","48360","OAKLAND"
"0f5f8e0d4f8096dc17ac617977f08069",42.601326,-83.404873,"West Bloomfield","48324","OAKLAND"
"0f673f5e68793519cb4b45a36d434e40",42.239435,-83.584198,"Ypsilanti","48198","WASHTENAW"
"0f6c5c1615488cb87d2a1b6d2f400476",42.498868,-83.370062,"Farmington Hills","48333","OAKLAND"
"0f6e05843019817fbd59c87c07546a6f",42.961263,-85.661612,"Grand Rapids","49503","KENT"
"0f7d657788a035a6cbce9c422721ff79",43.053988,-83.327384,"Lapeer","48446","LAPEER"
"0f7ecc0910fd3be395ef9d5e25d8a43b",42.470864,-83.141926,"Pleasant Ridge","48069","OAKLAND"
"0f86967bf1c736974d0e0f94c2456149",42.593143,-83.494152,"Commerce Township","48382","OAKLAND"
"0f8735f2108cb3dd8a81d348f507d0b6",42.560295,-82.906151,"Clinton Township","48035","MACOMB"
"0f8d25b1153447bca244e182bcbf064a",42.231396,-83.6302,"Ypsilanti","48197","WASHTENAW"
"0faccd8cc20ea4ebd24ca99f80d19254",42.564732,-83.068295,"Sterling Heights","48310","MACOMB"
"0fb300d64792460e2d093a113af01b64",42.654914,-85.294209,"Hastings","49058","BARRY"
"0fb65f14df1da03ec821524455b15d97",42.497134,-83.289913,"Southfield","48034","OAKLAND"
"0fbab34e81252f3acb9e4fca1afbdf72",42.399411,-86.248679,"South Haven","49090","VAN BUREN"
"0fbabeb9189cd3f84c54a5e66b9d0580",42.231223,-83.262935,"Taylor","48180","WAYNE"
"0fbcdc95b2243d25722eb890ab40fddb",43.236989,-86.179766,"Muskegon","49442","MUSKEGON"
"0fc0a1ad8461905727abef2b651afb23",45.078632,-83.464494,"Alpena","49707","ALPENA"
"0fc35cfcd02f68eca42cd7bbfa0892ea",42.99439,-85.635579,"Grand Rapids","49505","KENT"
"0fc88ec19d8a9071098f56a44a92d08c",42.749179,-83.53999,"Springfield Township","48350","OAKLAND"
"0fd0b45141d61d05f3a1719088021604",42.768757,-86.068233,"Holland","49423","OTTAWA"
"0fd0b6523d8f4e1a4891410e54899372",42.531931,-85.862598,"Allegan","49010","ALLEGAN"
"0fd18d1c3764cda5b1c368015ae6bab4",42.922838,-85.205855,"Saranac","48881","IONIA"
"0fd408f05ef72779a1011538d495c46a",42.448428,-85.622141,"Plainwell","49080-9501","ALLEGAN"
"0fd754b0a134aa4fefa6a3ed84f1325b",42.39907,-83.377196,"Livonia","48154","WAYNE"
"0fd892a4852238e25832b254352bd377",43.027367,-83.519155,"Davison","48423","GENESEE"
"0fd97b4414ebd5cfbbd95048c7ba0283",41.906478,-83.41815,"Monroe","48161","MONROE"
"0fe39005d5ab9c2efcad69c03343b109",42.970397,-85.673043,"Grand Rapids","49501","KENT"
"0fe5854a295e7670f05fd27a2b3b311c",42.763027,-83.527989,"Davisburg","48350-1636","OAKLAND"
"0fecc67caa31b193d805288c668716eb",42.66726,-83.001039,"Shelby Township","48315","MACOMB"
"0ff258b388919a2e33591898952b4c62",42.565473,-83.773632,"Brighton","48114","LIVINGSTON"
"1007a86ec377db712ada810c917aa2c6",42.519701,-83.263023,"Southfield Township","48025","OAKLAND"
"1017d8c6650f0a5ae6cffd20098dfbfd",42.507577,-83.616435,"New Hudson","48165","OAKLAND"
"101bd012df3f6fb7c80f81f5daa0aa02",33.727268,-84.20694,"Decatur","30035",NA
"101c9260d9a9702ca6ec8357b2854e16",42.717665,-83.151926,"Rochester","48306","OAKLAND"
"101d0346ef8abbe2d88c0856b45cd72c",43.953723,-83.879779,"Standish","48658","ARENAC"
"101e5e0c9374c95d08a013ee22c95ae0",42.651099,-83.049445,"Shelby Township","48317","MACOMB"
"102317df1a5b03cb7feaec2e971c438c",42.338006,-83.888246,"Dexter","48130","WASHTENAW"
"1026147852e3f6252e2268582e990788",43.177633,-83.717901,"Clio","48420","GENESEE"
"102fd8da56c8603ab8853e6c46b48c60",42.984241,-84.103089,"Corunna","48817","SHIAWASSEE"
"10301ff57c6b4ceb17d13ea9a8b68f8d",42.468272,-83.519582,"Novi","48374","OAKLAND"
"104ad3562f3c20dddd87ea05d34785e2",42.325227,-83.346044,"Garden City","48135","WAYNE"
"104cbcac059bfda43e43b1622f179594",42.732659,-84.556047,"Lansing","48901","INGHAM"
"10522ed5ed43e74cb549d07f538c0e22",42.961263,-85.661612,"Grand Rapids","49503","KENT"
"10589a13a342cdfe4471b01f8da8a786",42.648056,-85.295089,"Hastings","49058","BARRY"
"105e992639e33ba32195260fbd487129",42.560295,-82.906151,"Clinton Township","48035","MACOMB"
"10646b20b3f293bfcd09890ab3ca4085",42.594215,-83.654601,"Milford","48380","OAKLAND"
"1069ad1fcae404ea059d017d46927324",42.77526,-82.512409,"East China","48054-2708","ST. CLAIR"
"107da73804a46ccfb5feb8769bc69af7",42.66726,-83.001039,"Shelby Township","48315","MACOMB"
"1086f343e3b27c90add53eace77ecd5d",44.272544,-83.521616,"East Tawas","48764","IOSCO"
"1091ed0b18f8bc15d7e1083af74fcb54",42.648056,-85.295089,"Hastings","49058","BARRY"
"10936423599c3f572e3a5a96f40ee6a3",42.335198,-83.387924,"Westland","48185","WAYNE"
"1093ff9bee7f04e2c134c794bf7cb574",42.970397,-85.673043,"Grand Rapids","49501","KENT"
"109f3c454e7d4c757890859640717441",41.955209,-86.356543,"Berrien Springs","49104","BERRIEN"
"10a5b5fe3741acb86ba1e2540087624b",44.249454,-85.419174,"Cadillac","49601","WEXFORD"
"10abfe05a8e02068f417e2c21c085cd1",43.01929,-82.514987,"FORT GRATIOT","48059-4010","ST. CLAIR"
"10b7df0b623a0847f5fa40f96d4cc04b",43.180089,-85.258053,"Greenville","48838","MONTCALM"
"10c5a0b2baa31b0c02e7166b5c74a0ef",42.732659,-84.556047,"lansing","48901","INGHAM"
"10c5c7ffb92b3f37d51e124e7ff41f70",41.906478,-83.41815,"MONROE","48161","MONROE"
"10cd8600c4df851da06e3032a47356c4",42.149443,-84.039915,"Manchester","48158","WASHTENAW"
"10cf5fdc10955ff03e7a7fc57ba0e60d",42.760595,-82.930129,"Ray Township","48096","MACOMB"
"10d9ed2f67157ab4dbd0a3bf31be5a2f",43.190374,-84.119265,"Chesaning","48616","SAGINAW"
"10e3ec88956579c8d36bcddfb9da4b58",46.469274,-84.349673,"Sault Sainte Marie","49783","CHIPPEWA"
"10e5bc8e417345dccf909205043a9abc",42.721517,-83.412861,"Clarkston","48346","OAKLAND"
"10e6adad90e8136b14b0eeca23688407",42.32935,-83.482506,"Canton","48187","WAYNE"
"10e8624c67fadf4ba385028f20bf082a",42.203421,-83.208254,"Southgate","48195","WAYNE"
"10ea9a10afaec7644222e0d790faa3b8",41.898068,-84.039138,"Adrian","49221","LENAWEE"
"10ecd614c5f0f402e3eb7003334faf05",42.460721,-83.099692,"Hazel Park","48030","OAKLAND"
"10fc13f9cb39bdcd448b165cea96ee9d",42.564732,-83.068295,"Sterling Heights","48310","MACOMB"
"1105bfbba6e0476621dbfe7c7a6f63cf",42.564732,-83.068295,"Sterling Heights","48310","MACOMB"
"1107954196b4c6e628d6573447c9f9c3",42.981339,-83.603252,"Burton","48519","GENESEE"
"110a7bb59559931f82f26f3db4741acd",42.465382,-83.460593,"Novi","48375","OAKLAND"
"110d31bfc00c6a90f4ddb23f3b775686",45.412149,-84.607163,"Indian River","49749","CHEBOYGAN"
"1112f121af36e9cf90d48f652cace590",41.718105,-85.833772,"bristol","46507",NA
"111bf4881ea38acc1a960fd0b88b5eb3",43.584635,-83.878197,"Bay City","48708","BAY"
"112439eff2c74bffe73c86c77097d139",42.667678,-83.28278,"Pontiac","48340","OAKLAND"
"1124b9c4cdd0f0474c52900f9f92e605",42.399388,-82.893684,"Detroit","48236-3738","WAYNE"
"113336d722b6f012cc6147bceafad333",43.429525,-84.598219,"Saint Louis","48880","GRATIOT"
"113517e2a47fb321beacc687ef65ff27",42.349831,-83.059548,"Detroit","48201","WAYNE"
"11376a52e96005ceac1d2ee9fb0b7e5b",43.601913,-83.91718,"Bay City","48706","BAY"
"113945215c837bb542397e1a2261471d",42.536246,-82.945648,"Fraser","48026","MACOMB"
"113c27f3cb784d69e076111d63685dd4",42.687547,-82.907869,"Macomb","48042","MACOMB"
"11433d47d927df06a39bf71c5679b0b0",42.507987,-83.10592,"Madison Heights","48071","OAKLAND"
"114497d7ba78a9de5d3bcfe09d9a5b42",42.256026,-84.752467,"Albion","49224","CALHOUN"
"114eb0a5c3954495932b23bd8515a30c",42.817663,-86.017472,"Zeeland","49464","OTTAWA"
"1150c73c3135636a137e7d854f153160",42.231223,-83.262935,"Taylor","48180","WAYNE"
"11595c945d6a383b60a56646f9abb1de",42.66726,-83.001039,"Shelby Township","48315","MACOMB"
"1164503cc899c7ea7d03dec75e6df224",42.564732,-83.068295,"Sterling Heights","48310","MACOMB"
"11669deebe87b74f637d978e3dfef0f7",41.796664,-86.040675,"Edwardsburg","49112","CASS"
"116ac3fb86d567460e7ec7ca2c8b47f4",42.373206,-83.109352,"Detroit","48206","WAYNE"
"116e0a4f4f8e530c45fe5f7e7f836263",45.050088,-83.455066,"Alpena","49707-4053","ALPENA"
"1171092e77f0acdadc3de460823c1ac4",42.648506,-83.412243,"Waterford","48327","OAKLAND"
"117a8ccd4b5b082f887e685e833bbad0",42.978944,-85.775215,"Walker","49534","KENT"
"117c546d14723d5cde7f5442115c5908",42.856481,-82.68861,"Columbus","48063","ST. CLAIR"
"1187fb189bb80ec0f83cd973fba1898a",42.90457,-85.819925,"Jenison","49428","OTTAWA"
"118c04cfbdd0d76c35cf16d8bf87c661",43.190374,-84.119265,"Chesaning","48616","SAGINAW"
"118c15b583585c7b445ead44b7bdff44",42.519701,-83.263023,"Southfield Township","48025","OAKLAND"
"1199ca436aa63fcb1ef1586038adb08c",42.000082,-83.950222,"Tecumseh","49286","LENAWEE"
"11a00302306ca3a54b395a1319b8c214",42.564732,-83.068295,"Sterling Heights","48310","MACOMB"
"11aa1ec75d5f279fadb6f150d4bcb218",42.594427,-83.11995,"Troy","48085","OAKLAND"
"11b91de5b92dfe6c3838b3731bd1f541",42.659767,-83.539739,"White Lake","48383","OAKLAND"
"11b97574dfcee6382aa71459e1246d42",42.186739,-85.470163,"Scotts","49088","KALAMAZOO"
"11baa386ddb986b0409e822690117567",41.818408,-86.234139,"Niles","49120","BERRIEN"
"11d775d2c2b5d883cb657437197cdb67",42.732659,-84.556047,"Lansing","48901","INGHAM"
"11d95b7c13d9c7b49bf6289387b28ac8",42.506705,-82.938166,"Roseville","48066","MACOMB"
"11e297269eb3d6d3cd293d0ff09ff4d6",42.970397,-85.673043,"Grand Rapids","49501","KENT"
"11ece92a2b808effdce2bcea6e6a0063",34.521851,-82.627142,"Anderson","29621",NA
"11f4adde35e17861a874a14f8131e216",42.485288,-83.333692,"Farmington","48336","OAKLAND"
"11f53b8c6783f11624b8f047f7f9ebad",45.000431,-84.671928,"Gaylord","49735","OTSEGO"
"11f6bec406105c7c8e61ff2790a83029",41.906478,-83.41815,"Monroe","48161","MONROE"
"120478f48bb63f39882284518414a296",42.332747,-85.56739,"Kalamazoo","49004","KALAMAZOO"
"120ce8ceadc5df69d2a385df0f35a0e1",42.790338,-86.098823,"Holland","49422","OTTAWA"
"120cf47f166faad9632c10ab37c09f99",45.076841,-83.450679,"Alpena","49707","ALPENA"
"12122cbbd917f493a4696b312d04bef2",42.468272,-83.519582,"Novi","48374","OAKLAND"
"12134135e5bca3bd0d2f34522497e8ad",42.37171,-83.481485,"Plymouth","48170","WAYNE"
"1214c9618a82c58d11ced947692c6f4d",42.507987,-83.10592,"Madison Heights","48071","OAKLAND"
"1217d58f44eb990b21219fb7929aff4a",44.633272,-85.798708,"Interlochen","49643","GRAND TRAVERSE"
"122a08cef9072b8c03f59233501959e4",42.667678,-83.28278,"Pontiac","48340","OAKLAND"
"122b3a95325d9b42d677eea33adec3cf",42.970397,-85.673043,"Grand Rapids","49501","KENT"
"122bb0ef94d810d75d65a82981725709",42.278511,-83.780196,"Ann Arbor","48103","WASHTENAW"
"123139a897e26997e20147a39595e9b7",42.518185,-82.982591,"Warren","48088","MACOMB"
"1235d9fe8fd386cc39cc06b3a5f72bcc",43.180089,-85.258053,"Greenville","48838","MONTCALM"
"1240f0d00d4c520f513e5d1859fff610",42.745195,-84.478924,"East Lansing","48823","INGHAM"
"124ef758e0a9d714323cd0c3cd6cdf56",42.51867,-83.53741,"Wixom","48393","OAKLAND"
"126ce1b9b5e9e0ce4d459798014b8b29",43.235857,-86.250162,"Muskegon","49440","MUSKEGON"
"127956b6eeb92b38a57c183bb375b9fe",43.611223,-84.776711,"Mount Pleasant","48804","ISABELLA"
"1279d23a70d5834615bc405178ea5bc5",43.803626,-82.696048,"Harbor Beach","48441","HURON"
"1281e8ad4f597aaff4e76cd968a614a6",42.926811,-83.637671,"Grand Blanc","48439","GENESEE"
"1292daf0a5a46707abb3170485567351",42.486657,-83.140649,"Royal Oak","48067","OAKLAND"
"129959d592e53194111cf709117a84ad",42.926811,-83.637671,"Grand Blanc","48439","GENESEE"
"129bc0a7a46beb493d8126cb074acdb9",45.770323,-87.997319,"Niagara","54151",NA
"12a751cb18b4c816829d796de8134c3c",42.507987,-83.10592,"Madison Heights","48071","OAKLAND"
"12ab7958325e268df63d25def47e3084",42.335198,-83.387924,"Westland","48185","WAYNE"
"12b911b8457e909e3bf8daddf47e202c",42.093981,-83.68024,"Milan","48160","WASHTENAW"
"12c844efd2a565e05f62f0ca805734cf",42.970372,-85.672649,"Grand Rapids","49502","KENT"
"12c92effadd537d44c9fee144cc36bce",41.638647,-85.011108,"Angola","46703",NA
"12c9f43b58f62b8402ebea33ba18230b",43.027367,-83.519155,"Davidson","48423","GENESEE"
"12d354e038bb4e2bb1f4f6b929b61b20",43.589413,-83.868687,"Bay City","48708-6831","BAY"
"12de3a60c13f24eee40a54d24bff2090",43.364738,-83.862321,"Bridgeport","48722","SAGINAW"
"12e5ad7a7cf00e848dc6880c2002bbf8",42.598308,-83.905675,"Howell","48843","LIVINGSTON"
"12f065ca4edaecb128b0634f1470401c",42.501468,-83.147523,"Royal Oak","48067","OAKLAND"
"12f649d5f48403e056f1818c98eaa94a",43.895086,-85.263271,"Evart","49631","OSCEOLA"
"12f6b4cffcffbb999d533a7e59453c18",42.595092,-82.904823,"Clinton Township","48036","MACOMB"
"12f9decb45667d7e5b3aa2099ffe4459",42.961263,-85.661612,"Grand Rapids","49503","KENT"
"12fea601a92348619198aa583dcec2ac",42.943724,-84.800223,"Dewitt","48894","CLINTON"
"12ff7481a41c104b2748237689ab265d",42.506705,-82.938166,"Roseville","48066","MACOMB"
"130445b68ab21c21002c80eb6fdcaf5a",42.349831,-83.059548,"Detroit","48201","WAYNE"
"130469932e945dde875791121787547b",42.831218,-85.420442,"Alto","49302","KENT"
"1304d150b67cc8cdee75513aea5858c4",42.468272,-83.519582,"Novi","48374","OAKLAND"
"1306dd9034d6cd7c2f61f398177973a3",42.461734,-83.912441,"Pinckney","48169","LIVINGSTON"
"1310269ff5a6e4f9262e2b3a3d3b72d6",43.601913,-83.91718,"Bay City","48706","BAY"
"13133e2ae162eb6f5564b0bea49b1574",42.464384,-82.946764,"Eastpointe","48021","MACOMB"
"1313e7db1ab8583c6e251db9b6758c2c",42.564732,-83.068295,"Sterling Heights","48310","MACOMB"
"131417a0706f182e70e4666ca6cf861f",43.059851,-85.942761,"Coopersville","49404","OTTAWA"
"13188914224c52cc7326c5097eb631fd",43.100945,-84.216203,"Owosso","48841","SHIAWASSEE"
"1319b34103727672654877a42d5e7838",36.04894,-86.646173,"Antioch","37013",NA
"13283256496fe8c04edb479a46e29794",42.555532,-83.002572,"Sterling Heights","48312","MACOMB"
"132a10d69f9dd6e3f6f8d31fd474fb51",42.458992,-83.654637,"South Lyon","48178","OAKLAND"
"133bae578644392711e2829764b935c6",42.335198,-83.387924,"Westland","48185","WAYNE"
"1343c7cfa391393afbc073487f65c30f",42.732882,-83.036315,"Washington","48094","MACOMB"
"13478c11161efb3939ca5da853019902",43.010258,-83.692676,"Flint","48503","GENESEE"
"134e73e473e1818f1d3a0f1a46f3ec28",42.218079,-83.382295,"Romulus","48174","WAYNE"
"13716bfec085aa0b2c23364f9bdd4cd3",42.982035,-82.448487,"Port Huron","48060","ST. CLAIR"
"13773ba066917c613438971df82181fc",42.373206,-83.109352,"Detroit","48206","WAYNE"
"137a54350e1fd1776974162b7de4ec79",42.749179,-83.53999,"Davisburg","48350","OAKLAND"
"13807466b6c0bda09b3e4ba2460914e5",42.970397,-85.673043,"Grand Rapids","49501","KENT"
"138856297090e87ce15960aa907f99de",42.555532,-83.002572,"Sterling Heights","48312","MACOMB"
"13885c655e42bfc0de31a46f719a1411",43.088793,-85.252258,"Belding","48809","IONIA"
"1396b33c507d94fc283c860ea3691898",42.231223,-83.262935,"Taylor","48180","WAYNE"
"1399d32391bb1abfd7edb35b7766575e",43.023316,-83.686511,"Flint","48501","GENESEE"
"1399d9ea14c4a1e322369ecb3fbd94b2",42.717665,-83.151926,"Rochester","48306","OAKLAND"
"13b669ac025b9df916bf665e176ed60a",42.637908,-82.982025,"UTICA","48315-6113","MACOMB"
"13bc71a5e6db98b377cc951aea22e8a6",41.917721,-83.454262,"Monroe","48161-9084","MONROE"
"13c7d5caff20aa86c59e6a934d6aeebd",42.266835,-85.564718,"Kalamazoo","49001","KALAMAZOO"
"13cde9e5946915879fbc8fac487657b1",42.544984,-83.214877,"Birmingham","48009","OAKLAND"
"13d4bfc590b881dc40eb23f8acb35c53",42.745195,-84.478924,"East Lansing","48823","INGHAM"
"13da29fe874bda2598359436e48e1074",45.853434,-87.044061,"Gladstone","49837","DELTA"
"13e27ad807326280ac81a8a5469afddc",42.349831,-83.059548,"Detroit","48201","WAYNE"
"13eb6833141e9b90ec999590d51c481a",42.651099,-83.049445,"Shelby Township","48317","MACOMB"
"13ebc929862a20bf6b403ec624313fdd",42.565473,-83.773632,"Brighton","48114","LIVINGSTON"
"13ee6753a08d4e8eaf0051339d321417",43.244203,-86.200268,"Muskegon","49444","MUSKEGON"
"13fe01a751f818b5d057603f8f26db08",42.970397,-85.673043,"Grand Rapids","49501","KENT"
"1417db28f2cc89294b634d625ec440a4",43.196577,-86.268222,"Muskegon","49441","MUSKEGON"
"141f49375f5750d47a36134df821ceb9",43.119468,-83.69552,"mt morris","48458","GENESEE"
"1420ef530a4d665ca4944f8e2b7a8ffd",42.732659,-84.556047,"Lansing","48901","INGHAM"
"1421c295ad4b227ba4df794ddf0d7407",42.687547,-82.907869,"Macomb","48042","MACOMB"
"142a8d69d53071e0b19565a3e56a800c",42.473779,-83.475159,"Novi","48376","OAKLAND"
"142e01fb12e4a5b0af372e962574cb4a",42.888142,-85.570444,"Grand Rapids","49512","KENT"
"142e9f863db837090e6e9345746359c0",43.711885,-86.33977,"Hart","49420","OCEANA"
"143212206dddd211ab7b5b599e87f17d",44.759196,-85.668523,"Traverse City","49684","GRAND TRAVERSE"
"1432993fa5932b0a41f262388136ad7a",43.023316,-83.686511,"Flint Twp","48501","GENESEE"
"143bfe978be4f3e0c070e0aa5f3e27fa",42.783149,-83.72156,"Fenton","48430","GENESEE"
"143d50b9f90ce0b3d26aee3403fcd8ea",42.594427,-83.11995,"Troy","48085","OAKLAND"
"143e24c4999448cc8fca6c084fabc22f",42.598308,-83.905675,"Howell","48843","LIVINGSTON"
"1440bc45c60dd420c8c4f0577ba87f10",44.759196,-85.668523,"Traverse City","49684","GRAND TRAVERSE"
"1449653455f004984fc808496bdc37b8",41.895173,-83.580923,"Ida","48140","MONROE"
"144c7abb34b8daae70d0bf226c0b1c31",42.512487,-83.064593,"Warren","48092","MACOMB"
"144ed1e0f540a097025f64ced03fc7e2",41.957207,-84.035493,"ADRIAN","49221-1588","LENAWEE"
"1455551632965f83f3c13db97eef749b",42.856481,-82.68861,"Columbus","48063","ST. CLAIR"
"145a5cd6f98cf4087cdfa7dcc8b8d2bc",42.565598,-83.038545,"Sterling Heights","48311","MACOMB"
"1464893dca5db64f2f3ef8f6ff9de4a3",42.930492,-85.653294,"Grand Rapids","49507","KENT"
"146556c771acdfc09b8f642acd9d10e0",43.235857,-86.250162,"Muskegon","49440","MUSKEGON"
"1480f14c0c29e36fa1efc6468ebb7d8d",42.731783,-82.804378,"New Haven","48048","MACOMB"
"1493b37f56078a8740fdfd916c10061b",33.77509,-118.376102,"Manhattan Beach","90274",NA
"149a85f568a9d5cb1102b848b8de72b3",42.982855,-85.064206,"Ionia","48846","IONIA"
"14a0f9fabdb2744b1d565d8c923fd494",42.507577,-83.616435,"New Hudson","48165","OAKLAND"
"14a16f913c39e41cc2bcc191852148e6",42.82034,-86.139148,"Holland","49424","OTTAWA"
"14a4ddfe40178a9632dfb4602ecbb157",42.601326,-83.404873,"West Bloomfield","48324","OAKLAND"
"14a9fb4dc937ff345c38a75cad20a9b9",43.023316,-83.686511,"Flint","48501","GENESEE"
"14ab93634f68eab08bc7704132005293",42.364273,-83.366557,"Livonia","48150","WAYNE"
"14b7f786315d1850f3c772f57067343e",42.728151,-84.417291,"Okemos","48805","INGHAM"
"14badc7bc2852aaf4d59b0c9638bde72",42.717665,-83.151926,"Rochester","48306","OAKLAND"
"14ce53fe80d85d05cb5d36f468a6a7da",42.373206,-83.109352,"Detroit","48206","WAYNE"
"14e365a759c71c5f1387d7eaac1f36cf",42.32935,-83.482506,"Canton","48187","WAYNE"
"14e377ebf7c783eb3d12ff237daecb47",43.023316,-83.686511,"Flint","48501","GENESEE"
"14e3c5fde8acac975e4bdcdc71239f6b",43.100945,-84.216203,"Owosso","48841","SHIAWASSEE"
"14fdcca0a78d44e84055e012b3734185",43.048104,-83.640106,"Flint","48506","GENESEE"
"1500a84905eb195222602130371529b3",42.732659,-84.556047,"Lansing","48901","INGHAM"
"15020e35f1cfe26a2401375d7ab8bad8",42.486657,-83.140649,"Royal Oak","48067","OAKLAND"
"150696d01499e76d4354917af1b9df4f",43.108296,-84.387505,"Elsie","48831","CLINTON"
"1508816ace61c56fe4d74a03248ec94d",42.867726,-85.870369,"Hudsonville","49426","OTTAWA"
"1514e952810a157ea7cbd1270106879d",43.255195,-83.794346,"Birch Run","48415","SAGINAW"
"1522f9a8f7ba6fddc82caa07d8e90aaf",42.157042,-85.818036,"Lawton","49065","VAN BUREN"
"15237e41c2af3afc12ab22082d4aada6",42.797535,-85.730001,"Byron Center","49315-9146","KENT"
"1531d059e5ccfb2e980d5f9a4b54db37",42.197104,-83.483017,"Belleville","48111","WAYNE"
"1535d7b349df5c0b4a36e6986aa47ab3",42.531931,-85.862598,"Allegan","49010","ALLEGAN"
"15387423b83eff351b1e16a5a08f03d3",42.698972,-83.306457,"Auburn Hills","48321","OAKLAND"
"153ecb48a3444805f9cc497e266db2dc",43.632303,-84.261198,"Midland","48640","MIDLAND"
"15408ec625005b3082b5e527cb3cbe11",42.518185,-82.982591,"Warren","48088","MACOMB"
"154b11ab3044328ec460248f387d12d8",42.867726,-85.870369,"Hudsonville","49426","OTTAWA"
"154ddb76be3ee4ef177f824ee5c32cb9",42.60497,-83.930986,"Howell","48844","LIVINGSTON"
"154fe3bc36986655c7fb422089697fe4",42.364273,-83.366557,"Livonia","48150","WAYNE"
"155d52da8333f1d1535d605630826367",42.55997,-83.147539,"Troy","48007","OAKLAND"
"15646ad4e34193e2decbc7da6869298e",42.103003,-84.240772,"Brooklyn","49230","JACKSON"
"1564ef7594a55ef0c5066517d6a3b43e",42.453801,-83.7986,"Hamburg","48139","LIVINGSTON"
"156c8c29be9b504fee881c1e550accbc",42.518185,-82.982591,"Warren","48088","MACOMB"
"157218dd8a7ee42f804449e30c8e4f59",41.869056,-84.549579,"Osseo","49266","HILLSDALE"
"157cd041b3046c7a8c7da603e6e2a778",42.513495,-83.787948,"Brighton","48116","LIVINGSTON"
"1581e31e7f3bab2eb50d8f25a3d7af6e",41.984939,-86.29807,"Eau Claire","49111","BERRIEN"
"1595fbcfeecd4be17fc75835df18b9b3",42.753399,-84.393351,"Haslett","48840","INGHAM"
"159633d2dff016c0eb796a222e5005a3",41.642624,-83.511784,"Toledo","43605",NA
"15964a096c4db18a7b5fb454c7a43eae",42.564732,-83.068295,"Sterling Heights","48310","MACOMB"
"15a1f7e07aaa7a88c1e73271de499940",42.555532,-83.002572,"Sterling Heights","48312","MACOMB"
"15a5725624d2bbc9b9aa816ea1236588",42.970397,-85.673043,"Grand Rapids","49501","KENT"
"15a8672f320a2a2b484a8b8f0998edc4",42.856481,-82.68861,"Columbus","48063","ST. CLAIR"
"15ab74d61f5b27f71d9cb4a214266919",42.266835,-85.564718,"Kalamazoo","49001","KALAMAZOO"
"15abf923b246817c12f39884547ce8ab",42.239435,-83.584198,"Ypsilanti","48198","WASHTENAW"
"15b026edc02a1831272ff373fc4ef00d",42.971822,-85.9402,"Allendale","49401","OTTAWA"
"15b2bcf8554f8e1c21c4b4517342c2c2",42.722915,-83.418623,"Clarkston","48347","OAKLAND"
"15b3eef18846379996db442cb40f8cb7",42.814978,-83.793295,"Linden","48451","GENESEE"
"15b7206f7677545b310450a691d990a3",44.679234,-86.034619,"Honor","49640","BENZIE"
"15c1c5f655c599a52a2ef5adb04d9130",42.732659,-84.556047,"Lansing","48901","INGHAM"
"15c451ed2b572226d84dd52a74c34e2d",43.601913,-83.91718,"Bay City","48706","BAY"
"15c46681908d7d52be05921653bf4b93",42.374585,-83.077973,"Detroit","48202","WAYNE"
"15c65858f613ab10fbdcf6a16edf2c8a",43.117774,-83.692387,"Mount Morris","48458","GENESEE"
"15c67befe8acf669d80b356eeef5981d",42.553791,-83.121822,"Troy","48083","OAKLAND"
"15cec88c73d720a715318442abd054bf",42.266835,-85.564718,"Kalamazoo","49001","KALAMAZOO"
"15d086dfa029451c73fae5505736ae6d",42.403568,-83.069792,"Detroit","48212","WAYNE"
"15d32ede222850c257cac073472d7fee",43.698715,-85.306384,"Rodney","49342","MECOSTA"
"15ed00f292f96f6d6d54ed4d406c6dd0",43.059851,-85.942761,"Coopersville","49404","OTTAWA"
"15f966cc1f4ac261f1e05335130ffb80",42.874271,-84.066197,"Bancroft","48414","SHIAWASSEE"
"1607365c5eaf0c383a7c149b491e3aad",37.979246,-87.482479,"Evansville","47704",NA
"1615c6982edeed3820aecae8c039fcf6",42.498868,-83.370062,"Farmington Hills","48333","OAKLAND"
"1617882517efc59e746e66f2b2bb9fef",43.053988,-83.327384,"Lapeer","48446","LAPEER"
"1617949641bc23532674a913de6e96cc",42.68696,-83.063119,"Shelby Township","48316","MACOMB"
"161ccfbe1d9fc4cad55594da4e06740c",42.278511,-83.780196,"Ann Arbor","48103","WASHTENAW"
"161f3a9ae1e8bad6dbaf7b6add3cef8b",42.687547,-82.907869,"Macomb","48042","MACOMB"
"162e56b4c80c11f0797c9e3305753238",42.565473,-83.773632,"Brighton","48114","LIVINGSTON"
"1634e940b84aab43144a48631c690cb7",42.364273,-83.366557,"Livonia","48150","WAYNE"
"16356043167ba36de0ad32a7c7324db8",44.644079,-85.703877,"Grawn","49637","GRAND TRAVERSE"
"1637620eada10ae282c53a735cb42cc9",42.970397,-85.673043,"Grand Rapids","49501","KENT"
"163d67b3a0bd55ac1a8927c4de910795",43.029839,-83.071445,"Imlay City","48444","LAPEER"
"165399972c063dbe2a0e27a6c383bd90",43.343885,-83.362658,"Mayville","48744","TUSCOLA"
"165b7fe6991ff9a799de3df2d09f09a5",42.266835,-85.564718,"Kalamazoo","49001","KALAMAZOO"
"165db291451ca010eeddad13d6af31ed",42.421481,-83.103589,"Detroit","48203","WAYNE"
"165de07c8bb39dd6f5714f419a995db0",42.469309,-83.366744,"Farmington Hills","48336","OAKLAND"
"165f5a52b195a4505b4def518f1cde24",42.496696,-82.902742,"Saint Clair Shores","48081","MACOMB"
"166507495c9851f1d5c1b1f9e09493dc",42.598308,-83.905675,"Howell","48843","LIVINGSTON"
"16668493c40fc3801cef757a7d9a225d",42.946051,-85.351516,"Lowell","49331","KENT"
"167a705797bb981270b2573a667ffb89",42.349831,-83.059548,"Detroit","48201","WAYNE"
"168117a00930d03ffc68b46f7e8669bd",42.436174,-83.491611,"Northville","48167","WAYNE"
"1683be7e6c0884d8fe60dbb91eb198f7",43.219899,-85.569624,"Cedar Spring","49319","KENT"
"16875e4189367dfc2e30ec82efc50471",41.895173,-83.580923,"Ida","48140","MONROE"
"168ae582bdb5e975f009dac4948f7583",42.518185,-82.982591,"Warren","48088","MACOMB"
"1692a11af65d9d7cfad59d9d0e380ad4",42.266835,-85.564718,"Kalamazoo","49001","KALAMAZOO"
"1697abf7097512842f75704ac99ea13d",42.645261,-83.723504,"Hartland","48353","LIVINGSTON"
"169e837fb0deb2e76f009d1e03de0943",42.666188,-83.136797,"Rochester Hills","48307-2702","OAKLAND"
"16a572e7dfcb864a4942e4cc3edf79aa",42.815488,-85.711494,"Byron Center","49315","KENT"
"16a57e27133b4ec021d68d63c9d888bc",42.599354,-83.000813,"Sterling Heights","48313","MACOMB"
"16b3eb9a013e7a67bdc81d6e9092f729",42.66726,-83.001039,"Shelby Township","48315","MACOMB"
"16bfe3807a679bc61baf8cd39d1cf03d",41.932313,-85.006322,"Coldwater","49036","BRANCH"
"16df99fe274cf2fcc9e6b67a71d8d08f",44.877416,-85.773428,"Cedar","49621","LEELANAU"
"16e307065856bd663404aad15e8c84fd",42.118337,-85.643004,"Schoolcraft","49087","KALAMAZOO"
"16ef03d230253e5fdd7847b97e82c6a1",42.231396,-83.6302,"Ypsilanti","48197","WASHTENAW"
"16f7fe68e47d91a063d3bf3db9b9f8cd",42.338006,-83.888246,"Dexter","48130","WASHTENAW"
"16fc9423d96c7f9677508d46ef4c02e7",46.542048,-87.402352,"Marquette","49855","MARQUETTE"
"17017aa1fd15f744297c6335280fc06d",45.130058,-84.773302,"Vanderbilt","49795","CHARLEVOIX"
"1707a32c8536bb606839d1fec3bf573f",42.845627,-83.198505,"Oxford","48370","OAKLAND"
"1708c444a64b7a2123d1e400fbdc10e2",42.663303,-83.12877,"Rochester Hills","48307","OAKLAND"
"170a779e6d3a8afff55cc19083b021a2",43.660141,-83.973529,"Kawkawlin","48631","BAY"
"1715727e5076ea59e25da64eea80a062",42.732659,-84.556047,"Lansing","48901","INGHAM"
"17165498154af06975cbd670f57332cd",43.269736,-82.6246,"Croswell","48422","SANILAC"
"1722d04caf7c4080b80bb1bfc5d3c36b",43.196577,-86.268222,"Norton Shores","49441","MUSKEGON"
"173305cc0aada45ae4e449ebbcbd99a7",42.509874,-83.408043,"Farmington Hills","48331","OAKLAND"
"1734f246413a475415c04bedc294681c",42.266835,-85.564718,"Kalamazoo","49001","KALAMAZOO"
"173be6d86283a354b60173459b44ce80",41.818408,-86.234139,"Niles","49120","BERRIEN"
"173d17b79b715769caf21d96e5d6b9ee",42.630124,-82.558308,"Independence Township","48001","ST. CLAIR"
"1743ac84b692f22d81bd26a7127eab8a",42.349831,-83.059548,"Detroit","48201","WAYNE"
"1743fb12ad7af6647617b801ef7307dd",43.333113,-83.744704,"Frankenmuth","48734","SAGINAW"
"174464758c1da96df173fba81b24ee83",42.759284,-83.384724,"Clarkston","48348","OAKLAND"
"174adb1917d14a203e4173c95e9d09eb",45.213607,-85.012872,"Boyne City","49712","CHARLEVOIX"
"1751abf64bbe210c252591355f9f5054",42.111806,-83.289136,"Flat Rock","48134","WAYNE"
"175ee5cb7106fee14539e4c6ac5ed26b",43.017295,-83.6905,"flint","48502","GENESEE"
"17692e70139ea39748c80efbcb3b5a76",42.55997,-83.147539,"Troy","48007","OAKLAND"
"176995b5c1b6f18cd0247e209cc8e525",42.646987,-82.927716,"Macomb Township","48044","MACOMB"
"176a24382fdb15226045f4d749768446",42.518185,-82.982591,"Warren","48088","MACOMB"
"176fe0d35546c036978aec84a8f81bab",42.564732,-83.068295,"Sterling Heights","48310","MACOMB"
"1770d7a49d98b882a8e3fa26ceda66db",43.695948,-85.486703,"Big Rapids","49307","MECOSTA"
"17727cc4f7770e7a241faea70ab01618",42.732659,-84.556047,"Lansing","48901","INGHAM"
"1773706508edad9799c271df3273175a",42.737132,-84.62942,"Lansing","48917","EATON"
"1774b8c5559677af05d8e35c5e510e71",42.710636,-85.462971,"Middleville","49333","BARRY"
"177bcb147d8a3226c9d2c5f7da3e54b9",43.043216,-86.202193,"Grand Haven","49417","OTTAWA"
"177e7f6b66bdf85f16b9796168cf66f4",42.954016,-83.814249,"Swartz Creek","48473","GENESEE"
"177ed041a5c9e3cefdd8570015fa8acf",42.103003,-84.240772,"Brooklyn","49230","JACKSON"
"177f24315a559660a5b6a241f822397d",43.476866,-83.963507,"Saginaw","48604","SAGINAW"
"17824800a2fc07ad74035be5d1733b67",42.677696,-84.56673,"Lansing","48911","INGHAM"
"178364d77ba21458c7ca6dee1a1ff833",42.66726,-83.001039,"Shelby Township","48315","MACOMB"
"1786e391a23c11b3194d38bb24ebdea0",43.236989,-86.179766,"Muskegon","49442","MUSKEGON"
"1788694be72eb7dda7eb05418e3463a4",42.518185,-82.982591,"Warren","48088","MACOMB"
"17897e2937139ec9f27c526584870616",42.349831,-83.059548,"Detroit","48201","WAYNE"
"178b70d6b11b88c1724ee03a455a2858",43.522017,-83.773687,"Munger","48747","BAY"
"178e7cd2ccdb94e1aa7d828fb99a6172",42.518185,-82.982591,"Warren","48088","MACOMB"
"1792cc16f4fe1622ea61be20d617c2e8",42.888142,-85.570444,"Kentwood","49512","KENT"
"179af516f12592de0e6a226b6364a383",41.952997,-85.638678,"Three Rivers","49093","ST. JOSEPH"
"17a0a12f963dadde873f426294f831bb",42.888369,-85.765172,"Grandville","49418","KENT"
"17ac96f72c2b61958553e8319d4bbcb1",44.508987,-83.892641,"South Branch","48761","OSCODA"
"17be4b3d81d43b33805ca5ebe290b88e",42.349831,-83.059548,"Detroit","48201","WAYNE"
"17bef419ef83f4e3dbd7d265219ac77b",42.60497,-83.930986,"Howell","48844","LIVINGSTON"
"17c5b02b0f0bafa702b7cbba378244e5",42.68696,-83.063119,"Shelby Township","48316","MACOMB"
"17cf7a5a4b767b5dd43f64fdda8ec8b6",43.029839,-83.071445,"Imlay City","48444","LAPEER"
"17d79b201e64410f756ac718ab35eff3",42.339065,-83.282821,"Dearborn Heights","48127","WAYNE"
"17dc35b8dfd84ee00f6b550ce781a4eb",44.22008,-85.488021,"Cadillac","49601-9382","WEXFORD"
"17e4d8af77f92bedab7008763754e919",44.759196,-85.668523,"Traverse City","49684","GRAND TRAVERSE"
"17ebea211eb18749a9a9f8f0a076c3f2",42.646987,-82.927716,"Macomb","48044","MACOMB"
"17edbcb6b3b1d46aed579f6c390d28ae",42.349831,-83.059548,"Detroit","48201","WAYNE"
"17ee263b38fa019f2a9ec81b2f766b5d",42.926811,-83.637671,"Grand Blanc","48439","GENESEE"
"17f567d28b738831b837707c42077858",41.944064,-83.385262,"Monroe","48162","MONROE"
"17faa16e0cbc4d1bd2fcd34b4a775172",42.349831,-83.059548,"Detroit","48201","WAYNE"
"17ff77568bed80cd406e89fa06c4c915",42.970372,-85.672649,"Grand Rapids","49502","KENT"
"1800a5df2ae05d836daa8f3a3300e42b",42.46607,-82.996008,"Warren","48089","MACOMB"
"1811afd81fad59e159bbdb75d78a90f6",28.565366,-81.588271,"Winter Garden","34777",NA
"181a40183a099a37198408152463ac37",42.809956,-85.545562,"Caledonia","49316","KENT"
"181b03e6a89813651b264caee13a008f",42.402918,-83.059127,"Hamtramck","48212-3054","WAYNE"
"181c410e2b8c713a151294c90774877c",42.774841,-86.108125,"Holland","49423","OTTAWA"
"181d7a4ab6ba1a22b71471699baa1a3f",42.667678,-83.28278,"Pontiac","48340","OAKLAND"
"181ea4dd320d189c3e8b75abf4c68d3e",42.564732,-83.068295,"Sterling Heights","48310","MACOMB"
"181f0085ef915ae92870e2846d406c33",43.565366,-85.741574,"White Cloud","49349","NEWAYGO"
"1828799f55c2d0fb50826510c51d7ce3",42.51867,-83.53741,"Wixom","48393","OAKLAND"
"1828e8ae767b99f2aca083b96bcbc0f8",42.37537,-83.042455,"Hamtramck","48211","WAYNE"
"182cae3a25ac9a9172e412ab4c9dbb0f",42.111806,-83.289136,"Brownstown","48134","WAYNE"
"182fb7d7f96a0d85bda769c21c692a17",42.470864,-83.141926,"Pleasant Ridge","48069","OAKLAND"
"18323666bacd8fca8340db8c02881340",42.90457,-85.819925,"Georgetown Township","49428","OTTAWA"
"1836952d0cee2f644783c416d0860121",43.601913,-83.91718,"Bay City","48706","BAY"
"183a11296187456ea1503fa262c2892a",42.231396,-83.6302,"Ypsilanti","48197","WASHTENAW"
"184523fa1f27d5e1bdea3681abfd94e0",42.598308,-83.905675,"Howell","48843","LIVINGSTON"
"1846832e9f2299dadd55d150cb21f3e6",41.906478,-83.41815,"Monroe","48161","MONROE"
"1848749300409a079602f644ff456641",41.944064,-83.385262,"Monroe","48162","MONROE"
"184b04e7b63c3a3b2de63335ea6bfc0f",43.830723,-83.276402,"Pigeon","48755","HURON"
"18515a29cb1855164cd2109c5e99a3f3",42.538285,-83.384457,"West Bloomfield","48322","OAKLAND"
"185162c852d4df6c3159b4416bb7bd51",41.806895,-86.60775,"Three Oaks","49128","BERRIEN"
"1856dc69f306b4609e7ba8f6930ae214",43.695948,-85.486703,"Big Rapids","49307","MECOSTA"
"1857378881129333c45dae8733913146",41.955584,-86.357415,"Berrien Springs","49103","BERRIEN"
"18632528a87659b382146cf0a5f51dc6",42.981339,-83.603252,"Burton","48519","GENESEE"
"186ae7aaec979f8fe84b55c599954238",42.961263,-85.661612,"Grand Rapids","49503","KENT"
"1879edd077412e3584c50a15594ab1e5",45.14619,-84.653003,"Vanderbilt","49795","OTSEGO"
"187f6baa956c205ebbfa6cfb2c00b439",41.944064,-83.385262,"Monroe","48162","MONROE"
"188634decd69f2d61d7f607946af0527",43.819973,-84.760289,"Clare","48617","CLARE"
"18873276ac2db2b719f75c05082c9dcf",41.818408,-86.234139,"NILES","49120","BERRIEN"
"188c5ae59c28ec55507dd70bf210eca2",41.952997,-85.638678,"Three Rivers","49093","ST. JOSEPH"
"18a27f78f56925d11a0a9ff392baa724",45.213607,-85.012872,"Boyne City","49712","CHARLEVOIX"
"18a8d31a1cc62ff6e99ad5bfe1b44869",44.55721,-85.252552,"Fife Lake","49633","KALKASKA"
"18b2429bd1825a9af9937ecfe5499601",44.249454,-85.419174,"Cadillac","49601","WEXFORD"
"18be448ae5861225db166da0c42d4a7e",42.534523,-83.509807,"Walled Lake","48390","OAKLAND"
"18c7d4623c2cf1b313853acfb4630d66",42.275353,-83.383847,"Wayne","48184","WAYNE"
"18cd84607884024b7919854c010c0b5d",42.509874,-83.408043,"Farmington Hills","48331","OAKLAND"
"18ce7fdc15c8e91bb3ae034799c61571",41.906478,-83.41815,"Monroe","48161","MONROE"
"18d24b28cdae4a60e2a2f8aafeb8fad2",42.218079,-83.382295,"Romulus","48174","WAYNE"
"18d471d7e0cb51c01881bb7d7c1f1456",42.608121,-83.265328,"Bloomfield Hills","48302-0685","OAKLAND"
"18d5eeaa03f5de2ad41408fecbb54cc9",43.613948,-85.129376,"Remus","49340","MECOSTA"
"18da3e306640503c762904831a736464",42.266835,-85.564718,"Kalamazoo","49001","KALAMAZOO"
"18dbc389e1048669fa3ea0d7078d84f7",42.659713,-83.273665,"Pontiac","48340","OAKLAND"
"18e061f00a9b85576da2aee215e4b699",42.858778,-82.539767,"Saint Clair","48079","ST. CLAIR"
"18e52d786e4c54b5c26f4c6cba1627cc",43.177633,-83.717901,"Clio","48420","GENESEE"
"18e94c2cd89620cb2a89317c7033c057",41.961673,-85.32534,"Colon","49040","ST. JOSEPH"
"18e9a4e27d1ffce0474e0f225a0b9985",44.443916,-83.3653,"Oscoda","48750","IOSCO"
"18f71192c9b20d9ef95ec26b6ef342d9",42.738756,-84.52116,"Lansing","48912","INGHAM"
"1914a7d2ecf9c9b1f233cf8a7c47eb53",42.66726,-83.001039,"Shelby Township","48315","MACOMB"
"191b31aeab04d81d11d7e54c9d0a4d43",43.407795,-83.912611,"Saginaw","48601","SAGINAW"
"19249c6a1edc6ef800403dc0030cd460",42.76575,-82.543845,"China Township","48054","ST. CLAIR"
"192b6e58e28e2e43943759049c163276",42.349831,-83.059548,"Detroit","48201","WAYNE"
"1930d0bcb964dedb1cbd0eaa42f6baac",41.906478,-83.41815,"Monroe","48161","MONROE"
"1932d4eb2051850a7e846b0b66dba71c",41.184479,-83.672657,"North Baltimore","45872",NA
"193ef7542191616554189eaa40ab5bcb",42.389317,-82.928746,"Grosse Pointe","48230","WAYNE"
"1946302a44965dcb4d65a658c73d5a45",42.465023,-83.287774,"Southfield","48033","OAKLAND"
"194a590fe1677d96bfee8639b136d53c",42.512487,-83.064593,"Warren","48092","MACOMB"
"195fd688f1a01cc5927f2f75fdd3882e",42.560295,-82.906151,"Clinton Township","48035","MACOMB"
"196055247d46dbd191e7a85358256b4a",42.32935,-83.482506,"Canton","48187","WAYNE"
"1963c8b5abcdd0cf3cfa04634a2a3bea",41.904302,-85.996205,"Cassopolis","49031","CASS"
"196748c780596ca1daf7c86c22e2ebb6",42.673377,-82.777159,"Chesterfield","48047","MACOMB"
"1968cebb852fba80a8a6ce409a43a869",43.486863,-83.394167,"Caro","48723","TUSCOLA"
"197b375b1b63c180002f4cc91427770c",41.944064,-83.385262,"Monroe","48162","MONROE"
"1988af7339f63aa737c7c4d5e33b9067",43.027367,-83.519155,"Davison","48423","GENESEE"
"1988fbe9c94f5ca6a18a6ea9e3139162",41.932313,-85.006322,"Coldwater","49036","BRANCH"
"198b07dcae45505d9cdc85fbaf4ae660",42.560295,-82.906151,"Clinton Township","48035","MACOMB"
"198f32566059b37b0eef8b64f752edab",42.970397,-85.673043,"Grand Rapids","49501","KENT"
"1991bcbcb51776e3a9d351aee73357ec",42.930492,-85.653294,"Grand Rapids","49507","KENT"
"1995dfcbdcf38f008a9abc18690926d3",42.564732,-83.068295,"Sterling Heights","48310","MACOMB"
"19964ee0c70c696342265e265058f72d",42.717665,-83.151926,"Rochester Hills","48306","OAKLAND"
"19964f42106fc509c5fa418da212836a",41.70822,-83.719855,"Sylvania","43560",NA
"199c4fcc32ae8b321f6414d69e42e62a",43.632303,-84.261198,"Midland","48640","MIDLAND"
"199d37b2f915ce7a79d70dd4a9c406bc",45.745765,-87.084089,"Escanaba","49829","DELTA"
"199fc6ea6b63fa7848a51918f9cc3cfe",42.19704,-83.796784,"Saline","48176-9776","WASHTENAW"
"19a3dc8577b7f2d3cdb5175eab7b454c",42.422614,-83.228286,"Detroit","48201","WAYNE"
"19aa4cc7ac05ab8d4ecb2e77f3e92b9a",43.364738,-83.862321,"Bridgeport","48722","SAGINAW"
"19ab65f1e19b4cb3595849865d20dbcd",42.687547,-82.907869,"Macomb","48042","MACOMB"
"19b55b1d930c4151ab5299b441fee58e",28.550377,-81.309012,"Orlando","32807",NA
"19c063f3595da1e60dbb04ae75afbbfd",41.906478,-83.41815,"Monroe","48161","MONROE"
"19c1933714d4d4a1476c4f83d10455c3",42.306528,-83.181951,"Dearborn","48120","WAYNE"
"19cb0dfee6a504362d8eff083754091a",42.349831,-83.059548,"Detroit","48201","WAYNE"
"19d03868289c1a0b667c6a7306d6dfb4",42.465023,-83.287774,"Southfield","48033","OAKLAND"
"19da5146a88b1e6cf0506486b532407d",42.790338,-86.098823,"Holland","49422","OTTAWA"
"19de6e3cc5291b26e84351806f58f418",42.970397,-85.673043,"Grand Rapids","49501","KENT"
"19e634955369647364da7508749dd7da",43.390986,-86.333995,"Whitehall","49461","MUSKEGON"
"1a0ab9e8d708e8870f398633c2c72342",43.023316,-83.686511,"Flint","48501","GENESEE"
"1a190f79b8196fe396bc6806b4545e94",44.298332,-84.73425,"Houghton Lake","48629","ROSCOMMON"
"1a1b00fe352b7e054f43f08d1eeaccb8",43.091796,-83.297786,"Lapeer","48446-8612","LAPEER"
"1a1d784caa0d55cdedb38ae94c403f9a",42.093981,-83.68024,"Milan","48160","WASHTENAW"
"1a2011146f92be5da63f5d74487f9c8d",42.111806,-83.289136,"Brownstown","48134","WAYNE"
"1a2880749287c25b311d0b20f81ab358",42.926811,-83.637671,"Grand Blanc","48439","GENESEE"
"1a29429dd899f75363a69bf8bccf2341",42.913606,-85.74261,"Grandville","49418-1111","KENT"
"1a2ff08b68d65f45bcca7af8a6aebcfc",42.458992,-83.654637,"South Lyon","48178","OAKLAND"
"1a41fda20333b0ddf1a7b5ae8d01a7f7",42.565598,-83.038545,"Sterling Heights","48311","MACOMB"
"1a435b25856c9c6aa72b3e9dea2f1dca",45.076846,-83.450685,"Alpena","49707-1401","ALPENA"
"1a708bc80ef3ef1fe9b2f41121a0f8fb",42.007638,-83.556357,"Maybee","48159","MONROE"
"1a7308642e9163ec1125bdbde4844d22",46.542048,-87.402352,"Marquette","49855","MARQUETTE"
"1a889a404ae967e5b868998a9c1ba128",43.235857,-86.250162,"Muskegon","49440","MUSKEGON"
"1a95810e5baae74efdbc300ebffef0a5",41.906478,-83.41815,"Monroe","48161","MONROE"
"1aacf1286919d77777ca3d357ba7eeae",42.486657,-83.140649,"Royal Oak","48067","OAKLAND"
"1aadfda532afe81bc31f129d0999bae0",43.600148,-83.887475,"Bay City","48707","BAY"
"1ab4b52fe3d44ca37ace07c61df1387b",42.374585,-83.077973,"Detroit","48202","WAYNE"
"1ab9301243c0e0333a1681271f28f1aa",42.717665,-83.151926,"Oakland Township","48306","OAKLAND"
"1abbf4da677554f938e0b14cacfb1313",41.906478,-83.41815,"Monroe","48161","MONROE"
"1abd7d9630d450cf3790d4b3d1ac49ed",42.529184,-83.427621,"West Bloomfield","48322-2821","OAKLAND"
"1ac2d1a06c9d8ba60364c780a36b2f17",42.60497,-83.930986,"Howell","48844","LIVINGSTON"
"1ac395f91cee8cb655c9bf1c08fd73f1",42.544984,-83.214877,"Birmingham","48009","OAKLAND"
"1ad2c18677bf3011c96ae731ee4f0195",42.275353,-83.383847,"Wayne","48184","WAYNE"
"1ad69c9be420bb054f90328921448b1e",43.415778,-84.054852,"Saginaw","48609-6900","SAGINAW"
"1ae670c1ddf58392851d2295e6ca15ca",42.573765,-83.064349,"Sterling Heights","48310-3314","MACOMB"
"1aea18e28f26ab503e5ec031798cb630",43.043216,-86.202193,"Grand Haven","49417","OTTAWA"
"1aed0a73278f6d07abc2bf636d3f54c2",42.000082,-83.950222,"Tecumseh","49286","LENAWEE"
"1aedbc9e166ca182dea506c20f86494b",42.610778,-83.342192,"Keego Harbor","48320","OAKLAND"
"1aeecb8dc3d1edc3ce3d31fc9973b270",42.732659,-84.556047,"lansing","48901","INGHAM"
"1af7f292ef79d330d850208ded78d79a",43.100918,-84.128994,"Owosso","48867","SHIAWASSEE"
"1afc167fb2225f8fd9cb6c4b81a3c594",42.737132,-84.62942,"Lansing","48917","EATON"
"1b0699847b95e9270ef77b48f9bc4bdb",42.721517,-83.412861,"Clarkston","48346","OAKLAND"
"1b1c992853cc481509b1c0b6c60d3da8",44.759196,-85.668523,"Traverse City","49684","GRAND TRAVERSE"
"1b228e7c1860441f54fa18eda73f8c32",43.053988,-83.327384,"Lapeer","48446","LAPEER"
"1b22ee1ea8a090b977de443f44af6226",42.374585,-83.077973,"Detroit","48202","WAYNE"
"1b2e4a207e017608fe4c4f0a2e64b785",42.83696,-83.28466,"Oxford","48371","OAKLAND"
"1b2f840e8d92e736d1486445f371e5e3",42.673272,-83.245845,"Auburn Hills","48326","OAKLAND"
"1b4f7ede68dfbc1a3c5dc53f2da41df6",43.1829,-84.482411,"Ashley","48806","GRATIOT"
"1b50fc36fd101072dded626be867c230",42.586166,-83.356303,"Silver Lake","48324","OAKLAND"
"1b579c0d4c133003939c58ed78f9b13a",42.771666,-84.55995,"Lansing","48906","CLINTON"
"1b57a2a0ebedc82c15beeb4dc9571525",42.644304,-84.523504,"Holt","48842","INGHAM"
"1b62c3f89e91a70d2381d6d302193502",42.790338,-86.098823,"Holland","49422","OTTAWA"
"1b64ec8c69503841e72cb5914bc57433",42.732659,-84.556047,"Lansing","48901","INGHAM"
"1b652db622736e17272c26a8ccc7f0df",43.235857,-86.250162,"Muskegon","49440","MUSKEGON"
"1b65fc2f35d7fca609eda253304d094c",42.108735,-86.421699,"Benton Harbor","49022","BERRIEN"
"1b6a87e66107d2ad424654019ec2e61e",42.970397,-85.673043,"Grand Rapids","49501","KENT"
"1b6f03a0d8630e8aed452f2b6fc1eed5",41.898068,-84.039138,"Adrian","49221","LENAWEE"
"1b7121fcd237b214c715ab9e8814cc6a",44.759196,-85.668523,"Traverse City","49684","GRAND TRAVERSE"
"1b755c277e63d0d63d273557f313293e",42.014411,-86.510868,"Stevensville","49127","BERRIEN"
"1b7acaab9a1e3a6d704c0ef5efac7bd5",42.553791,-83.121822,"Troy","48083","OAKLAND"
"1b7ebac35f3ee831e8a7bbac32185ec7",42.722915,-83.418623,"Clarkston","48347","OAKLAND"
"1b85a39ba71773c79cd576b3bd3d7d5c",42.790338,-86.098823,"Holland","49422","OTTAWA"
"1b8c46a96ba9a18ed528a56a010bf742",43.060375,-85.465512,"Rockford","49341-9009","KENT"
"1b96e92a162319de712259157e837b8e",42.90457,-85.819925,"Jenison","49428","OTTAWA"
"1b9aa4a75ab246b05b1ce5eafedfc148",41.869132,-85.026217,"Coldwater","49036-9048","BRANCH"
"1ba79f13fa24097265f6214b1544b7a2",42.677696,-84.56673,"Lansing","48911","INGHAM"
"1ba9bd1e195d06d091794e9da4de6e1a",43.236061,-86.249584,"Muskegon","49443","MUSKEGON"
"1bc9bd386fe95fb61798100901d926c8",42.530852,-83.068351,"Warren","48092-4344","MACOMB"
"1bcab5c63fec26b7e3f85fbe5d25439c",43.361817,-83.580158,"Vassar","48768","TUSCOLA"
"1bd290a05d8b3b4cb530d9d0a0dc8acb",42.749654,-84.744939,"Grand Ledge","48837","EATON"
"1bd3c1ed9286e001fbd4ac81d18c0287",43.853575,-83.980321,"Pinconning","48650","BAY"
"1bdf2859a6f821f3cacd923de931e5f3",42.66726,-83.001039,"Shelby Township","48315","MACOMB"
"1be3695d60fb21243efb97d76a76023e",43.027367,-83.519155,"Davison","48423","GENESEE"
"1be6bfc98ecf31b8875faa78e5c845c0",42.308582,-83.703171,"Ann Arbor","48105","WASHTENAW"
"1be80b626aafb181a6b4b8cd8dd49a38",42.650137,-83.357532,"Waterford","48328","OAKLAND"
